[{"name":"Shanghai","country":"CN","lat":31.2222,"lng":121.4581,"population":24874500},{"name":"Beijing","country":"CN","lat":39.9075,"lng":116.3972,"population":18960744},{"name":"Shenzhen","country":"CN","lat":22.5455,"lng":114.0683,"population":17494398},{"name":"Guangzhou","country":"CN","lat":23.1167,"lng":113.25,"population":16096724},{"name":"Kinshasa","country":"CD","lat":-4.3276,"lng":15.3136,"population":16000000},{"name":"Istanbul","country":"TR","lat":41.0138,"lng":28.9497,"population":15701602},{"name":"Lagos","country":"NG","lat":6.4541,"lng":3.3947,"population":15388000},{"name":"Ho Chi Minh City","country":"VN","lat":10.823,"lng":106.6296,"population":14002598},{"name":"Chengdu","country":"CN","lat":30.6667,"lng":104.0667,"population":13568357},{"name":"Lahore","country":"PK","lat":31.558,"lng":74.3507,"population":13004135},{"name":"Mumbai","country":"IN","lat":19.0728,"lng":72.8826,"population":12691836},{"name":"São Paulo","country":"BR","lat":-23.5475,"lng":-46.6361,"population":12400232},{"name":"Mexico City","country":"MX","lat":19.4285,"lng":-99.1277,"population":12294193},{"name":"Karachi","country":"PK","lat":24.8608,"lng":67.0104,"population":11624219},{"name":"Tianjin","country":"CN","lat":39.1422,"lng":117.1767,"population":11090314},{"name":"Delhi","country":"IN","lat":28.6519,"lng":77.2315,"population":11034555},{"name":"Wuhan","country":"CN","lat":30.5833,"lng":114.2667,"population":10392693},{"name":"Moscow","country":"RU","lat":55.752,"lng":37.6178,"population":10381222},{"name":"Dhaka","country":"BD","lat":23.7104,"lng":90.4074,"population":10356500},{"name":"Seoul","country":"KR","lat":37.566,"lng":126.9784,"population":10349312},{"name":"Tokyo","country":"JP","lat":35.6895,"lng":139.6917,"population":9733276},{"name":"Dongguan","country":"CN","lat":23.018,"lng":113.7487,"population":9644871},{"name":"Cairo","country":"EG","lat":30.0626,"lng":31.2497,"population":9606916},{"name":"Xi’an","country":"CN","lat":34.2583,"lng":108.9286,"population":9600000},{"name":"Johannesburg","country":"ZA","lat":-26.2023,"lng":28.0436,"population":9418183},{"name":"Nanjing","country":"CN","lat":32.0617,"lng":118.7778,"population":9314685},{"name":"Hangzhou","country":"CN","lat":30.2936,"lng":120.1614,"population":9236032},{"name":"Foshan","country":"CN","lat":23.0268,"lng":113.1315,"population":9042509},{"name":"London","country":"GB","lat":51.5085,"lng":-0.1257,"population":8961989},{"name":"New York City","country":"US","lat":40.7143,"lng":-74.006,"population":8804190},{"name":"Jakarta","country":"ID","lat":-6.2146,"lng":106.8451,"population":8540121},{"name":"Bengaluru","country":"IN","lat":12.9719,"lng":77.5937,"population":8495492},{"name":"Hanoi","country":"VN","lat":21.0245,"lng":105.8412,"population":8053663},{"name":"Taipei","country":"TW","lat":25.0531,"lng":121.5264,"population":7871900},{"name":"Lima","country":"PE","lat":-12.0432,"lng":-77.0282,"population":7737002},{"name":"Bogotá","country":"CO","lat":4.6097,"lng":-74.0817,"population":7674366},{"name":"Chongqing","country":"CN","lat":29.5603,"lng":106.5577,"population":7457599},{"name":"Hong Kong","country":"HK","lat":22.2783,"lng":114.1747,"population":7396076},{"name":"Baghdad","country":"IQ","lat":33.3406,"lng":44.4009,"population":7216000},{"name":"Wuzhong","country":"CN","lat":37.9867,"lng":106.201,"population":7202654},{"name":"Qingdao","country":"CN","lat":36.0649,"lng":120.3804,"population":7172451},{"name":"Tehran","country":"IR","lat":35.6944,"lng":51.4215,"population":7153309},{"name":"Shenyang","country":"CN","lat":41.7922,"lng":123.4328,"population":7050000},{"name":"Hyderabad","country":"IN","lat":17.384,"lng":78.4564,"population":6993262},{"name":"Rio de Janeiro","country":"BR","lat":-22.9064,"lng":-43.1822,"population":6747815},{"name":"Suzhou","country":"CN","lat":31.3041,"lng":120.5954,"population":6715559},{"name":"Ahmedabad","country":"IN","lat":23.0258,"lng":72.5873,"population":6357693},{"name":"Abidjan","country":"CI","lat":5.3544,"lng":-4.0017,"population":6321017},{"name":"Pudong","country":"CN","lat":31.24,"lng":121.5009,"population":5681512},{"name":"Singapore","country":"SG","lat":1.2897,"lng":103.8501,"population":5638700},{"name":"Sydney","country":"AU","lat":-33.8678,"lng":151.2073,"population":5557233},{"name":"Dar es Salaam","country":"TZ","lat":-6.8235,"lng":39.2695,"population":5383728},{"name":"Saint Petersburg","country":"RU","lat":59.9386,"lng":30.3141,"population":5351935},{"name":"Melbourne","country":"AU","lat":-37.814,"lng":144.9633,"population":5350705},{"name":"Alexandria","country":"EG","lat":31.2018,"lng":29.9158,"population":5263542},{"name":"Harbin","country":"CN","lat":45.75,"lng":126.65,"population":5242897},{"name":"Bangkok","country":"TH","lat":13.754,"lng":100.5014,"population":5104476},{"name":"Hefei","country":"CN","lat":31.8639,"lng":117.2808,"population":5050000},{"name":"Dalian","country":"CN","lat":38.9122,"lng":121.6022,"population":4913879},{"name":"Kano","country":"NG","lat":12.0001,"lng":8.5167,"population":4910000},{"name":"Santiago","country":"CL","lat":-33.4569,"lng":-70.6483,"population":4837295},{"name":"Cape Town","country":"ZA","lat":-33.9258,"lng":18.4232,"population":4772846},{"name":"Peshawar","country":"PK","lat":34.008,"lng":71.5785,"population":4758762},{"name":"Changchun","country":"CN","lat":43.88,"lng":125.3228,"population":4714996},{"name":"Jeddah","country":"SA","lat":21.4901,"lng":39.1862,"population":4697000},{"name":"Chennai","country":"IN","lat":13.0878,"lng":80.2785,"population":4681087},{"name":"Kolkata","country":"IN","lat":22.5626,"lng":88.363,"population":4631392},{"name":"Xiamen","country":"CN","lat":24.4798,"lng":118.0819,"population":4617251},{"name":"Surat","country":"IN","lat":21.1959,"lng":72.8302,"population":4591246},{"name":"Yangon","country":"MM","lat":16.8053,"lng":96.1561,"population":4477638},{"name":"Bao'an","country":"CN","lat":22.5521,"lng":113.8829,"population":4476554},{"name":"Kabul","country":"AF","lat":34.5281,"lng":69.1723,"population":4434550},{"name":"Nairobi","country":"KE","lat":-1.2833,"lng":36.8167,"population":4397073},{"name":"Wuxi","country":"CN","lat":31.5689,"lng":120.2886,"population":4396835},{"name":"Giza","country":"EG","lat":30.0094,"lng":31.2086,"population":4367343},{"name":"Jinan","country":"CN","lat":36.6683,"lng":116.9972,"population":4335989},{"name":"Taiyuan","country":"CN","lat":37.8694,"lng":112.5603,"population":4303673},{"name":"Zhengzhou","country":"CN","lat":34.7578,"lng":113.6486,"population":4253913},{"name":"Bamako","country":"ML","lat":12.6091,"lng":-7.9752,"population":4227569},{"name":"Riyadh","country":"SA","lat":24.6877,"lng":46.7219,"population":4205961},{"name":"New Taipei City","country":"TW","lat":25.062,"lng":121.457,"population":4004367},{"name":"New Territories","country":"HK","lat":22.4244,"lng":114.111,"population":3984077},{"name":"Shijiazhuang","country":"CN","lat":38.0414,"lng":114.4786,"population":3938513},{"name":"Chattogram","country":"BD","lat":22.3384,"lng":91.8317,"population":3920222},{"name":"Addis Ababa","country":"ET","lat":9.025,"lng":38.7469,"population":3860000},{"name":"Kunming","country":"CN","lat":25.0389,"lng":102.7183,"population":3855346},{"name":"Zhongshan","country":"CN","lat":22.5231,"lng":113.3791,"population":3841873},{"name":"Nanning","country":"CN","lat":22.8167,"lng":108.3167,"population":3839800},{"name":"Shantou","country":"CN","lat":23.3549,"lng":116.6788,"population":3838900},{"name":"Los Angeles","country":"US","lat":34.0522,"lng":-118.2437,"population":3820914},{"name":"Faisalabad","country":"PK","lat":31.4155,"lng":73.0897,"population":3800193},{"name":"Dubai","country":"AE","lat":25.0772,"lng":55.3093,"population":3790000},{"name":"Yokohama","country":"JP","lat":35.4333,"lng":139.65,"population":3777491},{"name":"Fuzhou","country":"CN","lat":26.0614,"lng":119.3061,"population":3740000},{"name":"Ningbo","country":"CN","lat":29.8782,"lng":121.5494,"population":3731203},{"name":"Casablanca","country":"MA","lat":33.5883,"lng":-7.6114,"population":3665954},{"name":"Ibadan","country":"NG","lat":7.3776,"lng":3.9059,"population":3649000},{"name":"Puyang","country":"CN","lat":29.4568,"lng":119.8887,"population":3590000},{"name":"Ankara","country":"TR","lat":39.9199,"lng":32.8543,"population":3517182},{"name":"Shiyan","country":"CN","lat":32.6475,"lng":110.7781,"population":3460000},{"name":"Berlin","country":"DE","lat":52.5244,"lng":13.4105,"population":3426354},{"name":"Tangshan","country":"CN","lat":39.6438,"lng":118.1832,"population":3372102},{"name":"Rawalpindi","country":"PK","lat":33.5973,"lng":73.0479,"population":3357612},{"name":"Lüliang","country":"CN","lat":37.5192,"lng":111.1444,"population":3346500},{"name":"Durban","country":"ZA","lat":-29.8579,"lng":31.0292,"population":3338026},{"name":"Changzhou","country":"CN","lat":31.7736,"lng":119.954,"population":3290918},{"name":"Busan","country":"KR","lat":35.1017,"lng":129.03,"population":3285147},{"name":"Madrid","country":"ES","lat":40.4165,"lng":-3.7026,"population":3255944},{"name":"Pyongyang","country":"KP","lat":39.0339,"lng":125.7543,"population":3222000},{"name":"Zibo","country":"CN","lat":36.7906,"lng":118.0633,"population":3129228},{"name":"Pune","country":"IN","lat":18.5196,"lng":73.8554,"population":3124458},{"name":"Bursa","country":"TR","lat":40.1956,"lng":29.0601,"population":3101833},{"name":"Changsha","country":"CN","lat":28.1987,"lng":112.9709,"population":3093980},{"name":"Quezon City","country":"PH","lat":14.6488,"lng":121.0509,"population":3084270},{"name":"Jaipur","country":"IN","lat":26.9196,"lng":75.7878,"population":3046163},{"name":"Guiyang","country":"CN","lat":26.5833,"lng":106.7167,"population":3037159},{"name":"Ürümqi","country":"CN","lat":43.801,"lng":87.6005,"population":3029372},{"name":"Incheon","country":"KR","lat":37.4565,"lng":126.7052,"population":3015482},{"name":"Lanzhou","country":"CN","lat":36.057,"lng":103.8399,"population":3000000},{"name":"Caracas","country":"VE","lat":10.488,"lng":-66.8792,"population":3000000},{"name":"Kyiv","country":"UA","lat":50.4547,"lng":30.5238,"population":2952301},{"name":"İzmir","country":"TR","lat":38.4127,"lng":27.1384,"population":2938292},{"name":"Huizhou","country":"CN","lat":23.1115,"lng":114.4152,"population":2900113},{"name":"Buenos Aires","country":"AR","lat":-34.6131,"lng":-58.3772,"population":2891082},{"name":"Surabaya","country":"ID","lat":-7.2492,"lng":112.7508,"population":2874314},{"name":"Haikou","country":"CN","lat":20.0342,"lng":110.3465,"population":2873358},{"name":"Taichung","country":"TW","lat":24.1469,"lng":120.6839,"population":2850285},{"name":"Kanpur","country":"IN","lat":26.4652,"lng":80.3498,"population":2823249},{"name":"Toronto","country":"CA","lat":43.7064,"lng":-79.3986,"population":2794356},{"name":"Quito","country":"EC","lat":-0.2298,"lng":-78.525,"population":2781641},{"name":"Brisbane","country":"AU","lat":-27.4679,"lng":153.0281,"population":2780063},{"name":"Luanda","country":"AO","lat":-8.8368,"lng":13.2343,"population":2776168},{"name":"Osaka","country":"JP","lat":34.6938,"lng":135.5011,"population":2753862},{"name":"Linyi","country":"CN","lat":35.0631,"lng":118.3428,"population":2743843},{"name":"Baoding","country":"CN","lat":38.8729,"lng":115.4625,"population":2739887},{"name":"Kaohsiung","country":"TW","lat":22.6163,"lng":120.3133,"population":2737660},{"name":"Brooklyn","country":"US","lat":40.6501,"lng":-73.9496,"population":2736074},{"name":"Guayaquil","country":"EC","lat":-2.1962,"lng":-79.8862,"population":2723665},{"name":"Belo Horizonte","country":"BR","lat":-19.9208,"lng":-43.9378,"population":2721564},{"name":"Minhang","country":"CN","lat":31.1088,"lng":121.3747,"population":2716600},{"name":"Salvador","country":"BR","lat":-12.9756,"lng":-38.491,"population":2711840},{"name":"Abuja","country":"NG","lat":9.0579,"lng":7.4951,"population":2690000},{"name":"Gazipur","country":"BD","lat":23.9984,"lng":90.4223,"population":2674697},{"name":"Chicago","country":"US","lat":41.85,"lng":-87.65,"population":2664452},{"name":"Wenzhou","country":"CN","lat":27.9994,"lng":120.6668,"population":2650000},{"name":"Dakar","country":"SN","lat":14.6937,"lng":-17.4441,"population":2646503},{"name":"Haiphong","country":"VN","lat":20.8648,"lng":106.6834,"population":2625200},{"name":"Yunfu","country":"CN","lat":22.9279,"lng":112.0381,"population":2612800},{"name":"Navi Mumbai","country":"IN","lat":19.0368,"lng":73.0158,"population":2600000},{"name":"Mogadishu","country":"SO","lat":2.0371,"lng":45.3438,"population":2587183},{"name":"Bekasi","country":"ID","lat":-6.2349,"lng":106.9896,"population":2564940},{"name":"Kumasi","country":"GH","lat":6.6885,"lng":-1.6244,"population":2544530},{"name":"Gujranwala","country":"PK","lat":32.1557,"lng":74.187,"population":2511118},{"name":"Huai'an","country":"CN","lat":33.5886,"lng":119.0192,"population":2494013},{"name":"Lucknow","country":"IN","lat":26.8393,"lng":80.9231,"population":2472011},{"name":"Bandung","country":"ID","lat":-6.9222,"lng":107.6069,"population":2444160},{"name":"Medan","country":"ID","lat":3.5833,"lng":98.6667,"population":2435252},{"name":"Ouagadougou","country":"BF","lat":12.3657,"lng":-1.5339,"population":2415266},{"name":"Nagpur","country":"IN","lat":21.1463,"lng":79.0849,"population":2405665},{"name":"Fortaleza","country":"BR","lat":-3.7172,"lng":-38.5431,"population":2400000},{"name":"Cali","country":"CO","lat":3.4305,"lng":-76.5199,"population":2392877},{"name":"Daegu","country":"KR","lat":35.8703,"lng":128.5911,"population":2365523},{"name":"Algiers","country":"DZ","lat":36.7323,"lng":3.0875,"population":2364230},{"name":"Nanchang","country":"CN","lat":28.684,"lng":115.8531,"population":2357839},{"name":"Baku","country":"AZ","lat":40.3777,"lng":49.892,"population":2351300},{"name":"Hohhot","country":"CN","lat":40.8106,"lng":111.6522,"population":2350000},{"name":"Nagoya","country":"JP","lat":35.1815,"lng":136.9064,"population":2332176},{"name":"Rome","country":"IT","lat":41.8919,"lng":12.5113,"population":2318895},{"name":"Queens","country":"US","lat":40.6815,"lng":-73.8365,"population":2316841},{"name":"Houston","country":"US","lat":29.7633,"lng":-95.3633,"population":2314157},{"name":"Perth","country":"AU","lat":-31.9522,"lng":115.8614,"population":2309338},{"name":"Mashhad","country":"IR","lat":36.2981,"lng":59.6057,"population":2307177},{"name":"Shaoxing","country":"CN","lat":30.0024,"lng":120.5786,"population":2300000},{"name":"Nantong","country":"CN","lat":32.0303,"lng":120.8747,"population":2273326},{"name":"Baoshan","country":"CN","lat":31.4084,"lng":121.4896,"population":2265900},{"name":"Kowloon","country":"HK","lat":22.3167,"lng":114.1833,"population":2232339},{"name":"Yantai","country":"CN","lat":37.4765,"lng":121.4408,"population":2227733},{"name":"Gaziantep","country":"TR","lat":37.0594,"lng":37.3825,"population":2222415},{"name":"Lubumbashi","country":"CD","lat":-11.6609,"lng":27.4794,"population":2221925},{"name":"Manaus","country":"BR","lat":-3.1019,"lng":-60.025,"population":2219580},{"name":"Lusaka","country":"ZM","lat":-15.4067,"lng":28.2871,"population":2212301},{"name":"Brasília","country":"BR","lat":-15.7797,"lng":-47.9297,"population":2207718},{"name":"Zhuhai","country":"CN","lat":22.2769,"lng":113.5678,"population":2207090},{"name":"Santo Domingo","country":"DO","lat":18.4719,"lng":-69.8923,"population":2201941},{"name":"Lomé","country":"TG","lat":6.1287,"lng":1.2215,"population":2188376},{"name":"Multan","country":"PK","lat":30.1968,"lng":71.4782,"population":2169915},{"name":"Havana","country":"CU","lat":23.133,"lng":-82.383,"population":2163824},{"name":"Baotou","country":"CN","lat":40.6516,"lng":109.8439,"population":2150000},{"name":"Depok","country":"ID","lat":-6.4,"lng":106.8186,"population":2145400},{"name":"Paris","country":"FR","lat":48.8534,"lng":2.3488,"population":2138551},{"name":"Coimbatore","country":"IN","lat":11.0055,"lng":76.9661,"population":2136916},{"name":"Qingyang","country":"CN","lat":35.7098,"lng":107.6445,"population":2125400},{"name":"Port Harcourt","country":"NG","lat":4.7774,"lng":7.0134,"population":2120000},{"name":"Pretoria","country":"ZA","lat":-25.7449,"lng":28.1878,"population":2112693},{"name":"Córdoba","country":"AR","lat":-31.4065,"lng":-64.1885,"population":2106734},{"name":"Mbuji-Mayi","country":"CD","lat":-6.136,"lng":23.5898,"population":2101332},{"name":"Aleppo","country":"SY","lat":36.2012,"lng":37.1612,"population":2098210},{"name":"Kunshan","country":"CN","lat":31.3776,"lng":120.9543,"population":2092496},{"name":"Al Mawşil al Jadīdah","country":"IQ","lat":36.3327,"lng":43.1056,"population":2065597},{"name":"Weifang","country":"CN","lat":36.71,"lng":119.1019,"population":2044028},{"name":"Zunyi","country":"CN","lat":27.6867,"lng":106.9072,"population":2037775},{"name":"Al Başrah al Qadīmah","country":"IQ","lat":30.5032,"lng":47.8151,"population":2015483},{"name":"La Paz","country":"BO","lat":-16.5,"lng":-68.15,"population":2004652},{"name":"Lianyungang","country":"CN","lat":34.5984,"lng":119.2156,"population":2001009},{"name":"Medellín","country":"CO","lat":6.245,"lng":-75.5715,"population":1999979},{"name":"Indore","country":"IN","lat":22.7179,"lng":75.8333,"population":1994397},{"name":"Brazzaville","country":"CG","lat":-4.2661,"lng":15.2832,"population":1982000},{"name":"Tashkent","country":"UZ","lat":41.2647,"lng":69.2163,"population":1978028},{"name":"Ganzhou","country":"CN","lat":25.8466,"lng":114.9326,"population":1977253},{"name":"Almaty","country":"KZ","lat":43.2525,"lng":76.9115,"population":1977011},{"name":"Khartoum","country":"SD","lat":15.5518,"lng":32.5324,"population":1974647},{"name":"Sapporo","country":"JP","lat":43.0667,"lng":141.35,"population":1973832},{"name":"Songjiang","country":"CN","lat":31.0344,"lng":121.2233,"population":1973500},{"name":"Accra","country":"GH","lat":5.556,"lng":-0.1969,"population":1963264},{"name":"Curitiba","country":"BR","lat":-25.4278,"lng":-49.2731,"population":1948626},{"name":"Ordos","country":"CN","lat":39.6086,"lng":109.7816,"population":1940653},{"name":"Sanaa","country":"YE","lat":15.3545,"lng":44.2065,"population":1937451},{"name":"Conakry","country":"GN","lat":9.538,"lng":-13.6773,"population":1928389},{"name":"Tijuana","country":"MX","lat":32.5027,"lng":-117.0037,"population":1922523},{"name":"Hyderabad","country":"PK","lat":25.3969,"lng":68.3772,"population":1921275},{"name":"Beirut","country":"LB","lat":33.8933,"lng":35.5016,"population":1916100},{"name":"Tangerang","country":"ID","lat":-6.1781,"lng":106.63,"population":1912679},{"name":"Jieyang","country":"CN","lat":23.5418,"lng":116.3658,"population":1899394},{"name":"Jilin","country":"CN","lat":43.8465,"lng":126.5608,"population":1895865},{"name":"Jiading","country":"CN","lat":31.3858,"lng":121.2446,"population":1886100},{"name":"Bucharest","country":"RO","lat":44.4323,"lng":26.1063,"population":1877155},{"name":"Camayenne","country":"GN","lat":9.535,"lng":-13.6878,"population":1871242},{"name":"Kakamega","country":"KE","lat":0.2842,"lng":34.7523,"population":1867579},{"name":"Nanchong","country":"CN","lat":30.7951,"lng":106.0847,"population":1858875},{"name":"Tainan","country":"TW","lat":22.9908,"lng":120.2133,"population":1856642},{"name":"Datong","country":"CN","lat":40.0936,"lng":113.2914,"population":1850000},{"name":"Kaduna","country":"NG","lat":10.5264,"lng":7.4388,"population":1850000},{"name":"Omdurman","country":"SD","lat":15.6445,"lng":32.4777,"population":1849659},{"name":"Davao","country":"PH","lat":7.0731,"lng":125.6128,"population":1848947},{"name":"Hamburg","country":"DE","lat":53.5507,"lng":9.993,"population":1845229},{"name":"Thāne","country":"IN","lat":19.197,"lng":72.9635,"population":1841488},{"name":"Iztapalapa","country":"MX","lat":19.3553,"lng":-99.0622,"population":1835486},{"name":"Diyarbakır","country":"TR","lat":37.9136,"lng":40.2172,"population":1833684},{"name":"Santa Cruz de la Sierra","country":"BO","lat":-17.7863,"lng":-63.1812,"population":1831434},{"name":"Vadodara","country":"IN","lat":22.2994,"lng":73.2081,"population":1822221},{"name":"Adana","country":"TR","lat":36.9862,"lng":35.3253,"population":1816750},{"name":"Nanyang","country":"CN","lat":33.0052,"lng":112.5466,"population":1811812},{"name":"Abu Dhabi","country":"AE","lat":24.4512,"lng":54.397,"population":1807000},{"name":"Sharjah","country":"AE","lat":25.3342,"lng":55.4122,"population":1800000},{"name":"Bhopal","country":"IN","lat":23.2547,"lng":77.4029,"population":1798218},{"name":"Jiangmen","country":"CN","lat":22.5833,"lng":113.0833,"population":1795459},{"name":"Benin City","country":"NG","lat":6.3381,"lng":5.6258,"population":1782000},{"name":"Jiangyin","country":"CN","lat":31.911,"lng":120.263,"population":1779515},{"name":"Fuyang","country":"CN","lat":32.9,"lng":115.8167,"population":1768947},{"name":"Montréal","country":"CA","lat":45.5088,"lng":-73.5878,"population":1762949},{"name":"Bayan Nur","country":"CN","lat":40.7414,"lng":107.386,"population":1760000},{"name":"Maracaibo","country":"VE","lat":10.6423,"lng":-71.6109,"population":1752602},{"name":"Chaozhou","country":"CN","lat":23.654,"lng":116.6226,"population":1750945},{"name":"Minsk","country":"BY","lat":53.9002,"lng":27.5665,"population":1742124},{"name":"Budapest","country":"HU","lat":47.4984,"lng":19.0404,"population":1741041},{"name":"Qingyuan","country":"CN","lat":23.7,"lng":113.0333,"population":1738424},{"name":"Tai’an","country":"CN","lat":36.1853,"lng":117.12,"population":1735425},{"name":"Rasapūdipalem","country":"IN","lat":17.7331,"lng":83.3162,"population":1728128},{"name":"Pimpri-Chinchwad","country":"IN","lat":18.6187,"lng":73.8037,"population":1727692},{"name":"Caloocan","country":"PH","lat":14.6495,"lng":120.9679,"population":1712945},{"name":"Warsaw","country":"PL","lat":52.2298,"lng":21.0118,"population":1702139},{"name":"Soweto","country":"ZA","lat":-26.2678,"lng":27.8585,"population":1695047},{"name":"Puebla","country":"MX","lat":19.0478,"lng":-98.2072,"population":1692181},{"name":"Vienna","country":"AT","lat":48.2085,"lng":16.3721,"population":1691468},{"name":"Barcelona","country":"ES","lat":41.3888,"lng":2.159,"population":1686208},{"name":"Patna","country":"IN","lat":25.5941,"lng":85.1356,"population":1684297},{"name":"Mosul","country":"IQ","lat":36.335,"lng":43.1189,"population":1683000},{"name":"Kallakurichi","country":"IN","lat":11.7338,"lng":78.9592,"population":1682687},{"name":"Kampala","country":"UG","lat":0.3163,"lng":32.5822,"population":1680600},{"name":"Xining","country":"CN","lat":36.6255,"lng":101.7574,"population":1677177},{"name":"Changshu","country":"CN","lat":31.6461,"lng":120.7422,"population":1677050},{"name":"Palembang","country":"ID","lat":-2.9167,"lng":104.7458,"population":1668848},{"name":"Huainan","country":"CN","lat":32.6264,"lng":116.9969,"population":1666826},{"name":"Rabat","country":"MA","lat":34.0132,"lng":-6.8326,"population":1655753},{"name":"Semarang","country":"ID","lat":-6.9931,"lng":110.4208,"population":1653524},{"name":"Recife","country":"BR","lat":-8.0539,"lng":-34.8811,"population":1653461},{"name":"Phoenix","country":"US","lat":33.4484,"lng":-112.074,"population":1650070},{"name":"Suzhou","country":"CN","lat":33.6361,"lng":116.9789,"population":1647642},{"name":"Ecatepec de Morelos","country":"MX","lat":19.6049,"lng":-99.0606,"population":1645352},{"name":"Lu’an","country":"CN","lat":31.7356,"lng":116.5169,"population":1644344},{"name":"Valencia","country":"VE","lat":10.1615,"lng":-68.0004,"population":1619470},{"name":"Ludhiana","country":"IN","lat":30.912,"lng":75.8538,"population":1618879},{"name":"Yancheng","country":"CN","lat":33.3575,"lng":120.1573,"population":1615717},{"name":"Novosibirsk","country":"RU","lat":55.0226,"lng":82.9317,"population":1612833},{"name":"Erbil","country":"IQ","lat":36.1912,"lng":44.0094,"population":1612700},{"name":"Fukuoka","country":"JP","lat":33.6,"lng":130.4167,"population":1612392},{"name":"Taizhou","country":"CN","lat":32.4907,"lng":119.9081,"population":1607108},{"name":"Daqing","country":"CN","lat":46.5833,"lng":125,"population":1604027},{"name":"Manila","country":"PH","lat":14.6042,"lng":120.9822,"population":1600000},{"name":"Wuhu","country":"CN","lat":31.3526,"lng":118.4295,"population":1598165},{"name":"Santiago de Querétaro","country":"MX","lat":20.5881,"lng":-100.3881,"population":1594212},{"name":"Dazhou","country":"CN","lat":31.2106,"lng":107.4631,"population":1589435},{"name":"Yangzhou","country":"CN","lat":32.3972,"lng":119.4358,"population":1584237},{"name":"León de los Aldama","country":"MX","lat":21.1291,"lng":-101.6737,"population":1579803},{"name":"Makkah","country":"SA","lat":21.4266,"lng":39.8256,"population":1578722},{"name":"Philadelphia","country":"US","lat":39.9524,"lng":-75.1636,"population":1573916},{"name":"Phnom Penh","country":"KH","lat":11.5625,"lng":104.916,"population":1573544},{"name":"Guilin","country":"CN","lat":25.2802,"lng":110.2964,"population":1572300},{"name":"Damascus","country":"SY","lat":33.5102,"lng":36.2913,"population":1569394},{"name":"Quetta","country":"PK","lat":30.1841,"lng":67.0014,"population":1565546},{"name":"Zhaoqing","country":"CN","lat":23.0489,"lng":112.4609,"population":1553109},{"name":"Onitsha","country":"NG","lat":6.1498,"lng":6.7857,"population":1553000},{"name":"Mianyang","country":"CN","lat":31.4678,"lng":104.6817,"population":1550000},{"name":"Isfahan","country":"IR","lat":32.6525,"lng":51.6746,"population":1547164},{"name":"Wanzhou","country":"CN","lat":30.7645,"lng":108.3959,"population":1545900},{"name":"Harare","country":"ZW","lat":-17.8277,"lng":31.0534,"population":1542813},{"name":"Monrovia","country":"LR","lat":6.3005,"lng":-10.7969,"population":1542549},{"name":"Putian","country":"CN","lat":25.4394,"lng":119.0103,"population":1539389},{"name":"Kawasaki","country":"JP","lat":35.5206,"lng":139.7172,"population":1538262},{"name":"Shangqiu","country":"CN","lat":34.45,"lng":115.65,"population":1536392},{"name":"Goiânia","country":"BR","lat":-16.6786,"lng":-49.2539,"population":1536097},{"name":"Auckland","country":"NZ","lat":-36.8485,"lng":174.7635,"population":1530500},{"name":"San Antonio","country":"US","lat":29.4241,"lng":-98.4936,"population":1526656},{"name":"Kobe","country":"JP","lat":34.6913,"lng":135.183,"population":1525152},{"name":"Stockholm","country":"SE","lat":59.3294,"lng":18.0687,"population":1515017},{"name":"Ciudad Juárez","country":"MX","lat":31.7202,"lng":-106.4608,"population":1512450},{"name":"Cần Thơ","country":"VN","lat":10.0371,"lng":105.7883,"population":1507187},{"name":"Khulna","country":"BD","lat":22.8098,"lng":89.5644,"population":1500689},{"name":"Belém","country":"BR","lat":-1.4558,"lng":-48.5044,"population":1499641},{"name":"Yekaterinburg","country":"RU","lat":56.8573,"lng":60.6153,"population":1495066},{"name":"Porto Alegre","country":"BR","lat":-30.0328,"lng":-51.2302,"population":1488252},{"name":"Yinchuan","country":"CN","lat":38.4681,"lng":106.2731,"population":1487579},{"name":"Manhattan","country":"US","lat":40.7834,"lng":-73.9663,"population":1487536},{"name":"Nashik","country":"IN","lat":19.9973,"lng":73.791,"population":1486053},{"name":"Taizhou","country":"CN","lat":28.6627,"lng":121.4331,"population":1485502},{"name":"Asunción","country":"PY","lat":-25.2865,"lng":-57.647,"population":1482200},{"name":"Yiwu","country":"CN","lat":29.3151,"lng":120.0768,"population":1481384},{"name":"Zapopan","country":"MX","lat":20.7211,"lng":-103.3874,"population":1476491},{"name":"Adelaide","country":"AU","lat":-34.9287,"lng":138.5986,"population":1469163},{"name":"Quanzhou","country":"CN","lat":24.9139,"lng":118.5858,"population":1469157},{"name":"Madurai","country":"IN","lat":9.919,"lng":78.1195,"population":1465625},{"name":"Jinhua","country":"CN","lat":29.1068,"lng":119.6442,"population":1463990},{"name":"Kyoto","country":"JP","lat":35.0211,"lng":135.7538,"population":1463723},{"name":"Cixi","country":"CN","lat":30.1764,"lng":121.2457,"population":1457510},{"name":"Changde","country":"CN","lat":29.0321,"lng":111.6984,"population":1457419},{"name":"Kuala Lumpur","country":"MY","lat":3.1412,"lng":101.6865,"population":1453975},{"name":"Kayseri","country":"TR","lat":38.7322,"lng":35.4853,"population":1452458},{"name":"Kaifeng","country":"CN","lat":34.7986,"lng":114.3074,"population":1451741},{"name":"Anshan","country":"CN","lat":41.1236,"lng":122.99,"population":1450000},{"name":"Karaj","country":"IR","lat":35.8327,"lng":50.9915,"population":1448075},{"name":"Kathmandu","country":"NP","lat":27.7017,"lng":85.3206,"population":1442271},{"name":"Daejeon","country":"KR","lat":36.3491,"lng":127.3849,"population":1441203},{"name":"Baoji","country":"CN","lat":34.3678,"lng":107.237,"population":1437802},{"name":"Suqian","country":"CN","lat":33.9492,"lng":118.2958,"population":1437685},{"name":"Liuzhou","country":"CN","lat":24.324,"lng":109.407,"population":1436599},{"name":"Tirunelveli","country":"IN","lat":8.7274,"lng":77.6838,"population":1435844},{"name":"Konya","country":"TR","lat":37.8713,"lng":32.4846,"population":1433861},{"name":"Zhangjiagang","country":"CN","lat":31.865,"lng":120.5389,"population":1432044},{"name":"Agra","country":"IN","lat":27.1833,"lng":78.0167,"population":1430055},{"name":"Tabriz","country":"IR","lat":38.08,"lng":46.2919,"population":1424641},{"name":"Makassar","country":"ID","lat":-5.1486,"lng":119.4319,"population":1423877},{"name":"Kharkiv","country":"UA","lat":49.9818,"lng":36.2548,"population":1421125},{"name":"Jinjiang","country":"CN","lat":24.8198,"lng":118.5742,"population":1416151},{"name":"Faridabad","country":"IN","lat":28.4112,"lng":77.3132,"population":1414050},{"name":"Bozhou","country":"CN","lat":33.8772,"lng":115.7703,"population":1409436},{"name":"Qujing","country":"CN","lat":25.4833,"lng":103.7833,"population":1408500},{"name":"South Tangerang","country":"ID","lat":-6.2886,"lng":106.7179,"population":1404785},{"name":"San Diego","country":"US","lat":32.7157,"lng":-117.1647,"population":1404452},{"name":"Gwangju","country":"KR","lat":35.1547,"lng":126.9156,"population":1401235},{"name":"Zhanjiang","country":"CN","lat":21.2339,"lng":110.3875,"population":1400709},{"name":"Fushun","country":"CN","lat":41.8867,"lng":123.9436,"population":1400646},{"name":"Rājkot","country":"IN","lat":22.2916,"lng":70.7932,"population":1390640},{"name":"Luoyang","country":"CN","lat":34.6735,"lng":112.4368,"population":1390581},{"name":"Guadalajara","country":"MX","lat":20.6774,"lng":-103.3475,"population":1385629},{"name":"The Bronx","country":"US","lat":40.8499,"lng":-73.8664,"population":1385108},{"name":"Guankou","country":"CN","lat":28.1586,"lng":113.6271,"population":1380000},{"name":"Huế","country":"VN","lat":16.4619,"lng":107.5955,"population":1380000},{"name":"Milan","country":"IT","lat":45.4643,"lng":9.1895,"population":1371498},{"name":"Najafgarh","country":"IN","lat":28.6092,"lng":76.9798,"population":1365000},{"name":"N'Djamena","country":"TD","lat":12.1067,"lng":15.0444,"population":1359526},{"name":"Handan","country":"CN","lat":36.61,"lng":114.4876,"population":1358318},{"name":"Bannu","country":"PK","lat":32.9853,"lng":70.604,"population":1357890},{"name":"Yichang","country":"CN","lat":30.7144,"lng":111.2847,"population":1350150},{"name":"Antananarivo","country":"MG","lat":-18.9137,"lng":47.5361,"population":1349501},{"name":"Heze","country":"CN","lat":35.2393,"lng":115.4736,"population":1346717},{"name":"Abobo","country":"CI","lat":5.4161,"lng":-4.0159,"population":1340083},{"name":"Jamshedpur","country":"IN","lat":22.8028,"lng":86.1855,"population":1339438},{"name":"Douala","country":"CM","lat":4.0483,"lng":9.7043,"population":1338082},{"name":"Antalya","country":"TR","lat":36.9081,"lng":30.6956,"population":1335002},{"name":"Basrah","country":"IQ","lat":30.5085,"lng":47.7804,"population":1326564},{"name":"Dallas","country":"US","lat":32.7831,"lng":-96.8067,"population":1326087},{"name":"Saitama","country":"JP","lat":35.9081,"lng":139.6566,"population":1324854},{"name":"Gorakhpur","country":"IN","lat":29.4477,"lng":75.6721,"population":1324570},{"name":"Niamey","country":"NE","lat":13.5137,"lng":2.1098,"population":1323691},{"name":"Liupanshui","country":"CN","lat":26.5944,"lng":104.8333,"population":1320825},{"name":"Taguig","country":"PH","lat":14.5243,"lng":121.0792,"population":1308085},{"name":"Maoming","country":"CN","lat":21.6663,"lng":110.9136,"population":1307802},{"name":"Calgary","country":"CA","lat":51.0501,"lng":-114.0853,"population":1306784},{"name":"Tripoli","country":"LY","lat":32.8874,"lng":13.1873,"population":1302947},{"name":"Callao","country":"PE","lat":-12.0516,"lng":-77.1345,"population":1300000},{"name":"Madinah","country":"SA","lat":24.4686,"lng":39.6142,"population":1300000},{"name":"Yaoundé","country":"CM","lat":3.8667,"lng":11.5167,"population":1299369},{"name":"Qinzhou","country":"CN","lat":21.9825,"lng":108.6506,"population":1296300},{"name":"Luohe","country":"CN","lat":33.5639,"lng":114.0427,"population":1294974},{"name":"Xiangyang","country":"CN","lat":32.0422,"lng":112.1448,"population":1294733},{"name":"Yangjiang","country":"CN","lat":21.8556,"lng":111.9627,"population":1292987},{"name":"Yixing","country":"CN","lat":31.3606,"lng":119.8202,"population":1285785},{"name":"Pimpri","country":"IN","lat":18.6229,"lng":73.807,"population":1284606},{"name":"Da Nang","country":"VN","lat":16.0678,"lng":108.2208,"population":1276000},{"name":"Amman","country":"JO","lat":31.9552,"lng":35.945,"population":1275857},{"name":"Budta","country":"PH","lat":7.2042,"lng":124.4397,"population":1273715},{"name":"Belgrade","country":"RS","lat":44.804,"lng":20.4651,"population":1273651},{"name":"Biên Hòa","country":"VN","lat":10.9447,"lng":106.8243,"population":1272235},{"name":"Qingpu","country":"CN","lat":31.1539,"lng":121.1141,"population":1271424},{"name":"Montevideo","country":"UY","lat":-34.9033,"lng":-56.1882,"population":1270737},{"name":"Xuchang","country":"CN","lat":34.0319,"lng":113.863,"population":1265536},{"name":"Kalyān","country":"IN","lat":19.2437,"lng":73.1355,"population":1262255},{"name":"Zigong","country":"CN","lat":29.3416,"lng":104.7769,"population":1262064},{"name":"Munich","country":"DE","lat":48.1374,"lng":11.5755,"population":1260391},{"name":"Nizhniy Novgorod","country":"RU","lat":56.3287,"lng":44.002,"population":1259013},{"name":"Jepara","country":"ID","lat":-6.5924,"lng":110.671,"population":1257912},{"name":"Maputo","country":"MZ","lat":-25.9655,"lng":32.5832,"population":1254837},{"name":"Xuzhou","country":"CN","lat":34.2044,"lng":117.2839,"population":1253991},{"name":"Dammam","country":"SA","lat":26.4344,"lng":50.1033,"population":1252523},{"name":"Ra’s Bayrūt","country":"LB","lat":33.9,"lng":35.4833,"population":1251739},{"name":"Neijiang","country":"CN","lat":29.5835,"lng":105.0622,"population":1251095},{"name":"Shiraz","country":"IR","lat":29.6103,"lng":52.5311,"population":1249942},{"name":"Heshan","country":"CN","lat":28.5694,"lng":112.3473,"population":1249807},{"name":"Dombivali","country":"IN","lat":19.2167,"lng":73.0833,"population":1247327},{"name":"Kananga","country":"CD","lat":-5.8962,"lng":22.4166,"population":1247168},{"name":"Kazan","country":"RU","lat":55.7887,"lng":49.1221,"population":1243500},{"name":"Jining","country":"CN","lat":35.405,"lng":116.5814,"population":1241012},{"name":"Barquisimeto","country":"VE","lat":10.0647,"lng":-69.357,"population":1240714},{"name":"Shubrā al Khaymah","country":"EG","lat":30.1251,"lng":31.2505,"population":1240289},{"name":"Putuo","country":"CN","lat":31.251,"lng":121.3897,"population":1239100},{"name":"Port-au-Prince","country":"HT","lat":18.5435,"lng":-72.3388,"population":1234742},{"name":"Suwon","country":"KR","lat":37.2911,"lng":127.0089,"population":1234582},{"name":"Xinyang","country":"CN","lat":32.1228,"lng":114.0656,"population":1230042},{"name":"Liaocheng","country":"CN","lat":36.4506,"lng":116.0025,"population":1229768},{"name":"Jinzhong","country":"CN","lat":37.684,"lng":112.7547,"population":1226617},{"name":"Meerut","country":"IN","lat":28.98,"lng":77.7064,"population":1223184},{"name":"Virār","country":"IN","lat":19.4559,"lng":72.8114,"population":1222390},{"name":"Nowrangapur","country":"IN","lat":19.2311,"lng":82.5483,"population":1220946},{"name":"Karbala","country":"IQ","lat":32.616,"lng":44.0249,"population":1218732},{"name":"Changzhi","country":"CN","lat":36.1839,"lng":113.1053,"population":1214940},{"name":"Tianshui","country":"CN","lat":34.5795,"lng":105.7424,"population":1212791},{"name":"Yangpu","country":"CN","lat":31.2619,"lng":121.519,"population":1210800},{"name":"Mombasa","country":"KE","lat":-4.0547,"lng":39.6636,"population":1208333},{"name":"Mandalay","country":"MM","lat":21.9747,"lng":96.0836,"population":1208099},{"name":"Srinagar","country":"IN","lat":34.0857,"lng":74.8055,"population":1206419},{"name":"Barranquilla","country":"CO","lat":10.9685,"lng":-74.7813,"population":1206319},{"name":"Chelyabinsk","country":"RU","lat":55.1611,"lng":61.4288,"population":1202371},{"name":"Mérida","country":"MX","lat":20.967,"lng":-89.6232,"population":1201000},{"name":"Hiroshima","country":"JP","lat":34.4,"lng":132.45,"population":1200754},{"name":"Santiago de los Caballeros","country":"DO","lat":19.4504,"lng":-70.6908,"population":1200000},{"name":"Shymkent","country":"KZ","lat":42.3099,"lng":69.6004,"population":1200000},{"name":"Weinan","country":"CN","lat":34.5035,"lng":109.5089,"population":1199290},{"name":"Ghāziābād","country":"IN","lat":28.6654,"lng":77.4391,"population":1199191},{"name":"Matola","country":"MZ","lat":-25.9622,"lng":32.4589,"population":1198988},{"name":"Dhanbad","country":"IN","lat":23.7976,"lng":86.4299,"population":1196214},{"name":"Hong Kong Island","country":"HK","lat":22.263,"lng":114.1842,"population":1195529},{"name":"Fes","country":"MA","lat":34.0331,"lng":-5.0003,"population":1191905},{"name":"Gustavo Adolfo Madero","country":"MX","lat":19.4939,"lng":-99.1107,"population":1185772},{"name":"Nouakchott","country":"MR","lat":18.0858,"lng":-15.9785,"population":1184530},{"name":"Kisangani","country":"CD","lat":0.5153,"lng":25.191,"population":1181788},{"name":"Jiaxing","country":"CN","lat":30.7522,"lng":120.75,"population":1180000},{"name":"Aurangabad","country":"IN","lat":19.8776,"lng":75.3423,"population":1175116},{"name":"Omsk","country":"RU","lat":54.9924,"lng":73.3686,"population":1172070},{"name":"Guarulhos","country":"BR","lat":-23.4628,"lng":-46.5333,"population":1169577},{"name":"Bandar Lampung","country":"ID","lat":-5.4292,"lng":105.2611,"population":1166066},{"name":"Prague","country":"CZ","lat":50.088,"lng":14.4208,"population":1165581},{"name":"Varanasi","country":"IN","lat":25.3167,"lng":83.0104,"population":1164404},{"name":"Batam","country":"ID","lat":1.1494,"lng":104.0249,"population":1164352},{"name":"Jiujiang","country":"CN","lat":29.7048,"lng":116.0021,"population":1164268},{"name":"Samara","country":"RU","lat":53.2077,"lng":50.1355,"population":1163399},{"name":"Aba","country":"NG","lat":5.1066,"lng":7.3667,"population":1160000},{"name":"Amritsar","country":"IN","lat":31.6223,"lng":74.8753,"population":1159227},{"name":"Birmingham","country":"GB","lat":52.4814,"lng":-1.8998,"population":1157603},{"name":"Copenhagen","country":"DK","lat":55.6759,"lng":12.5655,"population":1153615},{"name":"Sofia","country":"BG","lat":42.6975,"lng":23.3241,"population":1152556},{"name":"Anyang","country":"CN","lat":36.096,"lng":114.3828,"population":1146839},{"name":"Yerevan","country":"AM","lat":40.1776,"lng":44.5126,"population":1144700},{"name":"Luohu District","country":"CN","lat":22.5472,"lng":114.1315,"population":1143801},{"name":"Vijayawada","country":"IN","lat":16.5074,"lng":80.6466,"population":1143232},{"name":"Fengxiang","country":"CN","lat":30.8584,"lng":121.4678,"population":1140872},{"name":"Bijie","country":"CN","lat":27.3019,"lng":105.2863,"population":1137383},{"name":"Monterrey","country":"MX","lat":25.6843,"lng":-100.3172,"population":1135512},{"name":"Kigali","country":"RW","lat":-1.95,"lng":30.0588,"population":1132686},{"name":"Rostov-on-Don","country":"RU","lat":47.22,"lng":39.7077,"population":1130305},{"name":"Zhuzhou","country":"CN","lat":27.8333,"lng":113.15,"population":1129687},{"name":"Bogor","country":"ID","lat":-6.5944,"lng":106.7892,"population":1127408},{"name":"Malingao","country":"PH","lat":7.1608,"lng":124.475,"population":1121974},{"name":"Touba","country":"SN","lat":14.8623,"lng":-15.8753,"population":1120824},{"name":"Ufa","country":"RU","lat":54.7431,"lng":55.9678,"population":1120547},{"name":"Ranchi","country":"IN","lat":23.3432,"lng":85.3094,"population":1120374},{"name":"Shangrao","country":"CN","lat":28.4518,"lng":117.9429,"population":1116486},{"name":"Lilongwe","country":"MW","lat":-13.9669,"lng":33.7873,"population":1115815},{"name":"Huaibei","country":"CN","lat":33.9744,"lng":116.7917,"population":1113321},{"name":"Maiduguri","country":"NG","lat":11.8469,"lng":13.1571,"population":1110000},{"name":"Xuhui","country":"CN","lat":31.1959,"lng":121.4471,"population":1109800},{"name":"Meishan","country":"CN","lat":30.0439,"lng":103.837,"population":1107742},{"name":"Mwanza","country":"TZ","lat":-2.5167,"lng":32.9,"population":1104521},{"name":"Ulsan","country":"KR","lat":35.5372,"lng":129.3167,"population":1098421},{"name":"Sendai","country":"JP","lat":38.2667,"lng":140.8667,"population":1096704},{"name":"Krasnoyarsk","country":"RU","lat":56.0374,"lng":92.9314,"population":1090811},{"name":"Fuzhou","country":"CN","lat":27.96,"lng":116.3333,"population":1089888},{"name":"Guigang","country":"CN","lat":23.116,"lng":109.5947,"population":1086327},{"name":"Pekanbaru","country":"ID","lat":0.5167,"lng":101.4417,"population":1085000},{"name":"Oslo","country":"NO","lat":59.9127,"lng":10.7461,"population":1082575},{"name":"Jabalpur","country":"IN","lat":23.167,"lng":79.9501,"population":1081677},{"name":"Ilorin","country":"NG","lat":8.4966,"lng":4.5421,"population":1080000},{"name":"Aden","country":"YE","lat":12.7796,"lng":45.0385,"population":1079670},{"name":"Ciudad Nezahualcoyotl","country":"MX","lat":19.4006,"lng":-99.0148,"population":1077208},{"name":"Hengyang","country":"CN","lat":26.8895,"lng":112.6189,"population":1075516},{"name":"Prayagraj","country":"IN","lat":25.4448,"lng":81.8432,"population":1073438},{"name":"Visakhapatnam","country":"IN","lat":17.6801,"lng":83.2016,"population":1063178},{"name":"Goyang-si","country":"KR","lat":37.6564,"lng":126.835,"population":1061752},{"name":"Yulin","country":"CN","lat":22.6305,"lng":110.1469,"population":1056743},{"name":"Jodhpur","country":"IN","lat":26.2684,"lng":73.0059,"population":1056191},{"name":"Gwalior","country":"IN","lat":26.2298,"lng":78.1734,"population":1054420},{"name":"Jingzhou","country":"CN","lat":30.3503,"lng":112.1903,"population":1052282},{"name":"Gqeberha","country":"ZA","lat":-33.9611,"lng":25.6149,"population":1050078},{"name":"Tbilisi","country":"GE","lat":41.6914,"lng":44.8341,"population":1049498},{"name":"Voronezh","country":"RU","lat":51.6683,"lng":39.192,"population":1047549},{"name":"Xinxiang","country":"CN","lat":35.1903,"lng":113.8015,"population":1047088},{"name":"Yichun","country":"CN","lat":27.8333,"lng":114.4,"population":1045952},{"name":"Sokoto","country":"NG","lat":13.0627,"lng":5.2432,"population":1040000},{"name":"Jos","country":"NG","lat":9.9285,"lng":8.8921,"population":1040000},{"name":"Tangier","country":"MA","lat":35.7673,"lng":-5.7998,"population":1035141},{"name":"Teni","country":"IN","lat":10.0112,"lng":77.4777,"population":1034724},{"name":"Xianyang","country":"CN","lat":34.3378,"lng":108.7026,"population":1034081},{"name":"Mexicali","country":"MX","lat":32.6278,"lng":-115.4545,"population":1032686},{"name":"Pointe-Noire","country":"CG","lat":-4.7761,"lng":11.8635,"population":1032000},{"name":"Maceió","country":"BR","lat":-9.6658,"lng":-35.7353,"population":1031597},{"name":"Campinas","country":"BR","lat":-22.9056,"lng":-47.0608,"population":1031554},{"name":"Sanya","country":"CN","lat":18.2543,"lng":109.5095,"population":1031396},{"name":"Rangpur","country":"BD","lat":25.7466,"lng":89.2517,"population":1031388},{"name":"Kirkuk","country":"IQ","lat":35.4681,"lng":44.3922,"population":1031000},{"name":"Ashgabat","country":"TM","lat":37.95,"lng":58.3833,"population":1030063},{"name":"Comilla","country":"BD","lat":23.4619,"lng":91.185,"population":1030000},{"name":"Shaoguan","country":"CN","lat":24.8,"lng":113.5833,"population":1028460},{"name":"Howrah","country":"IN","lat":22.5769,"lng":88.3186,"population":1027672},{"name":"Raipur","country":"IN","lat":21.2333,"lng":81.6333,"population":1027264},{"name":"Changwon","country":"KR","lat":35.2281,"lng":128.6811,"population":1025702},{"name":"Longyan","country":"CN","lat":25.0749,"lng":117.0178,"population":1025087},{"name":"Dublin","country":"IE","lat":53.3331,"lng":-6.2489,"population":1024027},{"name":"Tiruchirappalli","country":"IN","lat":10.8155,"lng":78.6965,"population":1022518},{"name":"Yongzhou","country":"CN","lat":26.4239,"lng":111.6131,"population":1020715},{"name":"Brussels","country":"BE","lat":50.8505,"lng":4.3488,"population":1019022},{"name":"Zamboanga","country":"PH","lat":6.9103,"lng":122.0739,"population":1018849},{"name":"Ottawa","country":"CA","lat":45.4112,"lng":-75.6981,"population":1017449},{"name":"Huzhou","country":"CN","lat":30.8703,"lng":120.0933,"population":1015937},{"name":"Volgograd","country":"RU","lat":48.7138,"lng":44.4976,"population":1013533},{"name":"Khartoum North","country":"SD","lat":15.6493,"lng":32.5346,"population":1012211},{"name":"Edmonton","country":"CA","lat":53.5501,"lng":-113.4687,"population":1010899},{"name":"Odesa","country":"UA","lat":46.4857,"lng":30.7438,"population":1010537},{"name":"Wuwei","country":"CN","lat":37.9267,"lng":102.632,"population":1010295},{"name":"Jacksonville","country":"US","lat":30.3322,"lng":-81.6556,"population":1009833},{"name":"Arequipa","country":"PE","lat":-16.399,"lng":-71.5375,"population":1008290},{"name":"Fort Worth","country":"US","lat":32.7254,"lng":-97.3208,"population":1008106},{"name":"Hanzhong","country":"CN","lat":33.0751,"lng":107.0221,"population":1006557},{"name":"Hezhou","country":"CN","lat":24.4036,"lng":111.5667,"population":1005490},{"name":"Pest","country":"HU","lat":47.5,"lng":19.0833,"population":1001748},{"name":"Kota","country":"IN","lat":25.1825,"lng":75.8391,"population":1001694},{"name":"Zhu Cheng City","country":"CN","lat":35.995,"lng":119.4026,"population":1000000},{"name":"Shivaji Nagar","country":"IN","lat":18.5302,"lng":73.8526,"population":1000000},{"name":"Dongying","country":"CN","lat":37.4627,"lng":118.4917,"population":998968},{"name":"Luzhou","country":"CN","lat":28.8903,"lng":105.4257,"population":998900},{"name":"San Jose","country":"US","lat":37.3394,"lng":-121.895,"population":997368},{"name":"Sholapur","country":"IN","lat":17.6715,"lng":75.9104,"population":997281},{"name":"Marrakesh","country":"MA","lat":31.6342,"lng":-7.9999,"population":995871},{"name":"Guatemala City","country":"GT","lat":14.6407,"lng":-90.5133,"population":994938},{"name":"Meizhou","country":"CN","lat":24.2886,"lng":116.1177,"population":992351},{"name":"Yueyang","country":"CN","lat":29.3745,"lng":113.0948,"population":991465},{"name":"Laiwu","country":"CN","lat":36.1928,"lng":117.6569,"population":989535},{"name":"Benxi","country":"CN","lat":41.2886,"lng":123.765,"population":987717},{"name":"Perm","country":"RU","lat":58.0105,"lng":56.2502,"population":982419},{"name":"Zaria","country":"NG","lat":11.1113,"lng":7.7227,"population":980000},{"name":"Chiba","country":"JP","lat":35.6,"lng":140.1167,"population":979768},{"name":"Pingdingshan","country":"CN","lat":33.7309,"lng":113.3155,"population":979130},{"name":"Ciudad Guayana","country":"VE","lat":8.3512,"lng":-62.641,"population":978202},{"name":"Sargodha","country":"PK","lat":32.0859,"lng":72.6742,"population":975886},{"name":"Austin","country":"US","lat":30.2672,"lng":-97.7431,"population":974447},{"name":"Managua","country":"NI","lat":12.1328,"lng":-86.2504,"population":973087},{"name":"Bengbu","country":"CN","lat":32.9408,"lng":117.3608,"population":972784},{"name":"Salé","country":"MA","lat":34.0531,"lng":-6.7985,"population":972299},{"name":"Jerusalem","country":"IL","lat":31.769,"lng":35.2163,"population":971800},{"name":"Chandigarh","country":"IN","lat":30.7363,"lng":76.7884,"population":970602},{"name":"Dnipro","country":"UA","lat":48.4666,"lng":35.0407,"population":968502},{"name":"Cebu City","country":"PH","lat":10.3167,"lng":123.8907,"population":965332},{"name":"Sanhe","country":"CN","lat":39.9805,"lng":117.0689,"population":965075},{"name":"Köln","country":"DE","lat":50.9333,"lng":6.95,"population":963395},{"name":"Tiruppur","country":"IN","lat":11.1154,"lng":77.3546,"population":963173},{"name":"Guwahati","country":"IN","lat":26.1844,"lng":91.7458,"population":962334},{"name":"Xiangtan","country":"CN","lat":27.85,"lng":112.9,"population":959303},{"name":"Linfen","country":"CN","lat":36.0889,"lng":111.5189,"population":959198},{"name":"Victoria","country":"HK","lat":22.2875,"lng":114.1442,"population":956800},{"name":"Zhenjiang","country":"CN","lat":32.2109,"lng":119.4551,"population":950516},{"name":"Enugu","country":"NG","lat":6.4413,"lng":7.4988,"population":950000},{"name":"Rosario","country":"AR","lat":-32.9468,"lng":-60.6393,"population":948312},{"name":"Sulţānah","country":"SA","lat":24.4926,"lng":39.5857,"population":946697},{"name":"Huludao","country":"CN","lat":40.7524,"lng":120.8355,"population":944495},{"name":"Hubballi","country":"IN","lat":15.3478,"lng":75.1338,"population":943788},{"name":"Kitakyushu","country":"JP","lat":33.8518,"lng":130.8503,"population":940978},{"name":"Taiz","country":"YE","lat":13.5795,"lng":44.0209,"population":940600},{"name":"Setagaya","country":"JP","lat":35.6419,"lng":139.6472,"population":940071},{"name":"Kingston","country":"JM","lat":17.997,"lng":-76.7936,"population":937700},{"name":"Jing’an","country":"CN","lat":31.22,"lng":121.4158,"population":936500},{"name":"Baoshan","country":"CN","lat":25.1163,"lng":99.1637,"population":935618},{"name":"Rui’an","country":"CN","lat":27.7761,"lng":120.6586,"population":927383},{"name":"Chihuahua","country":"MX","lat":28.6353,"lng":-106.0889,"population":925762},{"name":"Nay Pyi Taw","country":"MM","lat":19.745,"lng":96.1297,"population":925000},{"name":"Eskişehir","country":"TR","lat":39.7767,"lng":30.5206,"population":921630},{"name":"Mysuru","country":"IN","lat":12.2979,"lng":76.6393,"population":920550},{"name":"Trujillo","country":"PE","lat":-8.116,"lng":-79.03,"population":919899},{"name":"Salem","country":"IN","lat":11.6538,"lng":78.1554,"population":917414},{"name":"São Luís","country":"BR","lat":-2.5297,"lng":-44.3028,"population":917237},{"name":"Seongnam-si","country":"KR","lat":37.4386,"lng":127.1378,"population":914832},{"name":"Cartagena","country":"CO","lat":10.3982,"lng":-75.4933,"population":914552},{"name":"Antipolo","country":"PH","lat":14.6258,"lng":121.1225,"population":913712},{"name":"Columbus","country":"US","lat":39.9612,"lng":-82.9988,"population":913175},{"name":"Sialkot","country":"PK","lat":32.4927,"lng":74.5313,"population":911817},{"name":"Charlotte","country":"US","lat":35.2271,"lng":-80.8431,"population":911311},{"name":"Laibin","country":"CN","lat":23.7474,"lng":109.2222,"population":910282},{"name":"Warri","country":"NG","lat":5.5174,"lng":5.7501,"population":910000},{"name":"Naples","country":"IT","lat":40.8522,"lng":14.2681,"population":909048},{"name":"Padang","country":"ID","lat":-0.9492,"lng":100.3543,"population":909040},{"name":"Xiaogan","country":"CN","lat":30.9269,"lng":113.9222,"population":908266},{"name":"Campo Grande","country":"BR","lat":-20.4428,"lng":-54.6464,"population":906092},{"name":"Ziyang","country":"CN","lat":30.1211,"lng":104.6481,"population":905729},{"name":"Bobo-Dioulasso","country":"BF","lat":11.1806,"lng":-4.2949,"population":904920},{"name":"Bahawalpur","country":"PK","lat":29.3978,"lng":71.6752,"population":903795},{"name":"Quzhou","country":"CN","lat":28.9594,"lng":118.8686,"population":902767},{"name":"Blantyre","country":"MW","lat":-15.785,"lng":35.0085,"population":902588},{"name":"Donetsk","country":"UA","lat":48.023,"lng":37.8022,"population":901645},{"name":"Abū Ghurayb","country":"IQ","lat":33.3056,"lng":44.1848,"population":900000},{"name":"Qom","country":"IR","lat":34.6401,"lng":50.8764,"population":900000},{"name":"Bishkek","country":"KG","lat":42.87,"lng":74.59,"population":900000},{"name":"Zaozhuang","country":"CN","lat":34.8647,"lng":117.5542,"population":899753},{"name":"Krasnodar","country":"RU","lat":45.0453,"lng":38.9818,"population":899541},{"name":"Natal","country":"BR","lat":-5.795,"lng":-35.2094,"population":896708},{"name":"Pingxiang","country":"CN","lat":27.6167,"lng":113.8535,"population":893550},{"name":"Cancún","country":"MX","lat":21.1743,"lng":-86.8466,"population":888797},{"name":"Indianapolis","country":"US","lat":39.7684,"lng":-86.158,"population":887642},{"name":"Gurugram","country":"IN","lat":28.4601,"lng":77.0263,"population":886519},{"name":"Bhubaneswar","country":"IN","lat":20.2724,"lng":85.8338,"population":885363},{"name":"Zhoushan","country":"CN","lat":29.9887,"lng":122.2049,"population":882932},{"name":"Qiqihar","country":"CN","lat":47.3392,"lng":123.9615,"population":882364},{"name":"Sulaymaniyah","country":"IQ","lat":35.565,"lng":45.4329,"population":878146},{"name":"Marseille","country":"FR","lat":43.297,"lng":5.3811,"population":877215},{"name":"Puning","country":"CN","lat":23.3107,"lng":116.1687,"population":874954},{"name":"Pikine","country":"SN","lat":14.7646,"lng":-17.3907,"population":874062},{"name":"Bhiwandi","country":"IN","lat":19.3002,"lng":73.0588,"population":874032},{"name":"Soshanguve","country":"ZA","lat":-25.4729,"lng":28.0992,"population":872309},{"name":"Teresina","country":"BR","lat":-5.0892,"lng":-42.8019,"population":871126},{"name":"Ankang","country":"CN","lat":32.68,"lng":109.0172,"population":870126},{"name":"Jalandhar","country":"IN","lat":31.3256,"lng":75.5792,"population":868929},{"name":"Rotterdam","country":"NL","lat":51.9225,"lng":4.4792,"population":868135},{"name":"Langfang","country":"CN","lat":39.5208,"lng":116.7147,"population":868066},{"name":"Jiaozuo","country":"CN","lat":35.2392,"lng":113.2391,"population":865413},{"name":"Rohini","country":"IN","lat":28.7432,"lng":77.0678,"population":860000},{"name":"Wanxian","country":"CN","lat":30.816,"lng":108.3741,"population":859662},{"name":"Guang’an","country":"CN","lat":30.4741,"lng":106.637,"population":858159},{"name":"Johor Bahru","country":"MY","lat":1.4655,"lng":103.7578,"population":858118},{"name":"Pasig City","country":"PH","lat":14.5869,"lng":121.0614,"population":853050},{"name":"Cheongju-si","country":"KR","lat":36.6372,"lng":127.4897,"population":852147},{"name":"Kanayannur","country":"IN","lat":9.9667,"lng":76.2667,"population":851406},{"name":"Tegucigalpa","country":"HN","lat":14.0818,"lng":-87.2068,"population":850848},{"name":"Bucheon-si","country":"KR","lat":37.4989,"lng":126.7831,"population":850731},{"name":"Thanh Hóa","country":"VN","lat":19.8,"lng":105.7667,"population":850000},{"name":"Turin","country":"IT","lat":45.0705,"lng":7.6868,"population":847287},{"name":"Malang","country":"ID","lat":-7.9797,"lng":112.6304,"population":847182},{"name":"Al Ain City","country":"AE","lat":24.1917,"lng":55.7606,"population":846747},{"name":"Libreville","country":"GA","lat":0.3924,"lng":9.4536,"population":846090},{"name":"Saratov","country":"RU","lat":51.5405,"lng":45.9901,"population":844858},{"name":"Ulan Bator","country":"MN","lat":47.9077,"lng":106.8832,"population":844818},{"name":"Weihai","country":"CN","lat":37.5091,"lng":122.1136,"population":844310},{"name":"Takeo","country":"KH","lat":10.9908,"lng":104.785,"population":843931},{"name":"Cochabamba","country":"BO","lat":-17.3819,"lng":-66.1599,"population":841276},{"name":"Ahvaz","country":"IR","lat":31.319,"lng":48.6842,"population":841145},{"name":"Vientiane","country":"LA","lat":17.9667,"lng":102.6,"population":840940},{"name":"Zhabei","country":"CN","lat":31.2586,"lng":121.4597,"population":840000},{"name":"Xinyu","country":"CN","lat":27.8043,"lng":114.9334,"population":839488},{"name":"Pietermaritzburg","country":"ZA","lat":-29.6168,"lng":30.3928,"population":839327},{"name":"Yibin","country":"CN","lat":28.7593,"lng":104.6399,"population":836340},{"name":"Naucalpan de Juárez","country":"MX","lat":19.4785,"lng":-99.2396,"population":834434},{"name":"Kampung Baru Subang","country":"MY","lat":3.15,"lng":101.5333,"population":833571},{"name":"Bouaké","country":"CI","lat":7.6939,"lng":-5.0303,"population":832371},{"name":"Samarinda","country":"ID","lat":-0.4917,"lng":117.1458,"population":831460},{"name":"Taicang","country":"CN","lat":31.4478,"lng":121.0939,"population":831113},{"name":"San Francisco","country":"US","lat":37.7749,"lng":-122.4194,"population":827526},{"name":"Sakai","country":"JP","lat":34.5822,"lng":135.4665,"population":826161},{"name":"Valencia","country":"ES","lat":39.4739,"lng":-0.3797,"population":824340},{"name":"Nova Iguaçu","country":"BR","lat":-22.7592,"lng":-43.4511,"population":823302},{"name":"Jinshan","country":"CN","lat":30.8356,"lng":121.2937,"population":822776},{"name":"Chenzhou","country":"CN","lat":25.8,"lng":113.0333,"population":822534},{"name":"Duque de Caxias","country":"BR","lat":-22.7856,"lng":-43.3117,"population":818329},{"name":"João Pessoa","country":"BR","lat":-7.115,"lng":-34.8631,"population":817511},{"name":"Bukavu","country":"CD","lat":-2.4908,"lng":28.8428,"population":816811},{"name":"Barcelona","country":"VE","lat":10.1384,"lng":-64.6877,"population":815141},{"name":"Bangui","country":"CF","lat":4.3612,"lng":18.555,"population":812407},{"name":"Hermosillo","country":"MX","lat":29.0887,"lng":-110.9668,"population":812229},{"name":"Bhayandar","country":"IN","lat":19.3016,"lng":72.8511,"population":809378},{"name":"Culiacán","country":"MX","lat":24.8021,"lng":-107.3942,"population":808416},{"name":"Petaling Jaya","country":"MY","lat":3.1073,"lng":101.6067,"population":807879},{"name":"Anqing","country":"CN","lat":30.5136,"lng":117.0472,"population":804493},{"name":"Kraków","country":"PL","lat":50.0614,"lng":19.9366,"population":804237},{"name":"Oran","country":"DZ","lat":35.6991,"lng":-0.6359,"population":803329},{"name":"Freetown","country":"SL","lat":8.4871,"lng":-13.2356,"population":802639},{"name":"San Pedro Sula","country":"HN","lat":15.5059,"lng":-88.0259,"population":801259},{"name":"Narela","country":"IN","lat":28.8527,"lng":77.0929,"population":800000},{"name":"Xingtai","country":"CN","lat":37.0622,"lng":114.4927,"population":798770},{"name":"Niigata","country":"JP","lat":37.9226,"lng":139.0412,"population":797591},{"name":"Muscat","country":"OM","lat":23.5841,"lng":58.4078,"population":797000},{"name":"Zarqa","country":"JO","lat":32.0727,"lng":36.088,"population":792665},{"name":"Çankaya","country":"TR","lat":39.9179,"lng":32.8627,"population":792189},{"name":"Hamamatsu","country":"JP","lat":34.7,"lng":137.7333,"population":791707},{"name":"Kolwezi","country":"CD","lat":-10.7148,"lng":25.4667,"population":790248},{"name":"Vinh","country":"VN","lat":18.6734,"lng":105.6923,"population":790000},{"name":"Thiruvananthapuram","country":"IN","lat":8.4855,"lng":76.9492,"population":788271},{"name":"Zhaotong","country":"CN","lat":27.3167,"lng":103.7167,"population":787845},{"name":"Panzhihua","country":"CN","lat":26.5851,"lng":101.7128,"population":787177},{"name":"Chuzhou","country":"CN","lat":32.3219,"lng":118.2978,"population":782671},{"name":"Seattle","country":"US","lat":47.6062,"lng":-122.3321,"population":780995},{"name":"Port Said","country":"EG","lat":31.2653,"lng":32.3019,"population":780515},{"name":"Cúcuta","country":"CO","lat":7.9074,"lng":-72.5049,"population":777106},{"name":"Homs","country":"SY","lat":34.724,"lng":36.7256,"population":775404},{"name":"Xuancheng","country":"CN","lat":30.9525,"lng":118.7553,"population":774332},{"name":"Ibb","country":"YE","lat":13.9667,"lng":44.1833,"population":771514},{"name":"Nampula","country":"MZ","lat":-15.1165,"lng":39.2666,"population":770379},{"name":"Shangyu","country":"CN","lat":30.0156,"lng":120.8711,"population":770000},{"name":"Bujumbura","country":"BI","lat":-3.3819,"lng":29.3614,"population":769317},{"name":"Tyumen","country":"RU","lat":57.1522,"lng":65.5272,"population":768358},{"name":"Erzurum","country":"TR","lat":39.9086,"lng":41.2769,"population":767848},{"name":"Anshun","country":"CN","lat":26.25,"lng":105.9333,"population":765313},{"name":"Dodoma","country":"TZ","lat":-6.1722,"lng":35.7395,"population":765179},{"name":"Rajshahi","country":"BD","lat":24.374,"lng":88.6011,"population":763580},{"name":"Dera Ismail Khan","country":"PK","lat":31.8313,"lng":70.9017,"population":763195},{"name":"Wuzhou","country":"CN","lat":23.4805,"lng":111.2885,"population":761948},{"name":"Ipoh","country":"MY","lat":4.5841,"lng":101.0829,"population":759952},{"name":"Qinhuangdao","country":"CN","lat":39.941,"lng":119.5894,"population":759718},{"name":"Benghazi","country":"LY","lat":32.1149,"lng":20.0686,"population":757490},{"name":"Alīgarh","country":"IN","lat":27.8815,"lng":78.0746,"population":753207},{"name":"Shaoyang","country":"CN","lat":27.2382,"lng":111.4621,"population":753194},{"name":"Malatya","country":"TR","lat":38.3502,"lng":38.3167,"population":750491},{"name":"Winnipeg","country":"CA","lat":49.8844,"lng":-97.147,"population":749607},{"name":"Bağcılar","country":"TR","lat":41.039,"lng":28.8567,"population":749024},{"name":"Ōta","country":"JP","lat":35.5613,"lng":139.716,"population":748081},{"name":"Andijon","country":"UZ","lat":40.7834,"lng":72.3507,"population":747800},{"name":"Bareilly","country":"IN","lat":28.3668,"lng":79.4317,"population":745435},{"name":"Buraydah","country":"SA","lat":26.326,"lng":43.975,"population":745353},{"name":"São Bernardo do Campo","country":"BR","lat":-23.6939,"lng":-46.565,"population":743372},{"name":"Hegang","country":"CN","lat":47.3473,"lng":130.2903,"population":743307},{"name":"Morelia","country":"MX","lat":19.7008,"lng":-101.1844,"population":743275},{"name":"Riga","country":"LV","lat":56.946,"lng":24.1059,"population":742572},{"name":"Tasikmalaya","country":"ID","lat":-7.3274,"lng":108.2207,"population":741760},{"name":"Amsterdam","country":"NL","lat":52.374,"lng":4.8897,"population":741636},{"name":"Cagayan de Oro","country":"PH","lat":8.4822,"lng":124.6472,"population":741617},{"name":"Ma’anshan","country":"CN","lat":31.6858,"lng":118.5101,"population":741531},{"name":"Shah Alam","country":"MY","lat":3.0851,"lng":101.5328,"population":740750},{"name":"Shizuishan","country":"CN","lat":38.9808,"lng":106.3892,"population":739400},{"name":"Kumamoto","country":"JP","lat":32.8059,"lng":130.6918,"population":738907},{"name":"Oyo","country":"NG","lat":7.8537,"lng":3.9324,"population":736072},{"name":"Torreón","country":"MX","lat":25.5439,"lng":-103.419,"population":735340},{"name":"Deyang","country":"CN","lat":31.1302,"lng":104.382,"population":735070},{"name":"Abeokuta","country":"NG","lat":7.1557,"lng":3.3451,"population":735000},{"name":"Al Ḩudaydah","country":"YE","lat":14.7978,"lng":42.9545,"population":734699},{"name":"Yangquan","country":"CN","lat":37.8575,"lng":113.5633,"population":731228},{"name":"Akure","country":"NG","lat":7.2526,"lng":5.1931,"population":730000},{"name":"São José dos Campos","country":"BR","lat":-23.1794,"lng":-45.8869,"population":729737},{"name":"Denver","country":"US","lat":39.7392,"lng":-104.9847,"population":729019},{"name":"Osasco","country":"BR","lat":-23.5325,"lng":-46.7917,"population":728615},{"name":"Álvaro Obregón","country":"MX","lat":19.3587,"lng":-99.2033,"population":726664},{"name":"Aihara","country":"JP","lat":35.6,"lng":139.3167,"population":725493},{"name":"Evaton","country":"ZA","lat":-26.5333,"lng":27.85,"population":725468},{"name":"Denpasar","country":"ID","lat":-8.65,"lng":115.2167,"population":725314},{"name":"Valenzuela","country":"PH","lat":14.7,"lng":120.9667,"population":725173},{"name":"Muzaffarābād","country":"PK","lat":34.37,"lng":73.4708,"population":725000},{"name":"Okayama","country":"JP","lat":34.65,"lng":133.9333,"population":724691},{"name":"San Luis Potosí","country":"MX","lat":22.1523,"lng":-100.9714,"population":722772},{"name":"Aguascalientes","country":"MX","lat":21.8826,"lng":-102.2843,"population":722250},{"name":"General Santos","country":"PH","lat":6.1128,"lng":125.1717,"population":722059},{"name":"Zhumadian","country":"CN","lat":32.9794,"lng":114.0294,"population":721670},{"name":"Morādābād","country":"IN","lat":28.8389,"lng":78.7768,"population":721139},{"name":"Sagamihara","country":"JP","lat":35.5671,"lng":139.2417,"population":720780},{"name":"Mississauga","country":"CA","lat":43.5789,"lng":-79.6583,"population":717961},{"name":"Lviv","country":"UA","lat":49.8383,"lng":24.0232,"population":717273},{"name":"Namangan","country":"UZ","lat":40.9983,"lng":71.6726,"population":713220},{"name":"Ribeirão Preto","country":"BR","lat":-21.1775,"lng":-47.8103,"population":711825},{"name":"Zaporizhzhya","country":"UA","lat":47.8517,"lng":35.1171,"population":710052},{"name":"Zanzibar","country":"TZ","lat":-6.1639,"lng":39.1979,"population":709809},{"name":"Saltillo","country":"MX","lat":25.426,"lng":-100.9796,"population":709671},{"name":"Latakia","country":"SY","lat":35.5313,"lng":35.7909,"population":709000},{"name":"Subang Jaya","country":"MY","lat":3.0438,"lng":101.5806,"population":708296},{"name":"Warangal","country":"IN","lat":18,"lng":79.5833,"population":704570},{"name":"Paranaque City","country":"PH","lat":14.4816,"lng":121.0175,"population":703245},{"name":"Tolyatti","country":"RU","lat":53.5303,"lng":49.3461,"population":702879},{"name":"Jaboatão","country":"BR","lat":-8.1803,"lng":-35.0014,"population":702621},{"name":"Santo Domingo Oeste","country":"DO","lat":18.5,"lng":-70,"population":701269},{"name":"Santo Domingo Este","country":"DO","lat":18.4851,"lng":-69.8476,"population":700000},{"name":"Dhārāvi","country":"IN","lat":19.05,"lng":72.8667,"population":700000},{"name":"Battagram","country":"PK","lat":34.6772,"lng":73.0233,"population":700000},{"name":"Suez","country":"EG","lat":29.9737,"lng":32.5263,"population":699541},{"name":"Changzhi","country":"CN","lat":35.2089,"lng":111.7386,"population":699514},{"name":"Agadir","country":"MA","lat":30.4202,"lng":-9.5982,"population":698310},{"name":"Edogawe","country":"JP","lat":35.6923,"lng":139.8731,"population":697932},{"name":"Sarajevo","country":"BA","lat":43.8486,"lng":18.3564,"population":696731},{"name":"Balikpapan","country":"ID","lat":-1.2675,"lng":116.8289,"population":695287},{"name":"Adachi","country":"JP","lat":35.7632,"lng":139.8076,"population":695043},{"name":"Changning","country":"CN","lat":31.2174,"lng":121.421,"population":694900},{"name":"Bauchi","country":"NG","lat":10.3103,"lng":9.8439,"population":693700},{"name":"Shizuoka","country":"JP","lat":34.9833,"lng":138.3833,"population":693389},{"name":"Tunis","country":"TN","lat":36.819,"lng":10.1658,"population":693210},{"name":"Zhangjiakou","country":"CN","lat":40.7834,"lng":114.8714,"population":692602},{"name":"Serang","country":"ID","lat":-6.1153,"lng":106.1542,"population":692101},{"name":"Washington","country":"US","lat":38.8951,"lng":-77.0364,"population":689545},{"name":"Nashville","country":"US","lat":36.1659,"lng":-86.7844,"population":689447},{"name":"Fuxin","country":"CN","lat":42.0156,"lng":121.6589,"population":689050},{"name":"Ta’if","country":"SA","lat":21.2703,"lng":40.4158,"population":688693},{"name":"Changsha","country":"CN","lat":22.3812,"lng":112.6849,"population":688242},{"name":"Huangshi","country":"CN","lat":30.2471,"lng":115.0481,"population":688090},{"name":"Liaoyang","country":"CN","lat":41.2719,"lng":123.1731,"population":687890},{"name":"Hlaingthaya","country":"MM","lat":16.85,"lng":96.0667,"population":687867},{"name":"Beira","country":"MZ","lat":-19.8436,"lng":34.8389,"population":687764},{"name":"Hongkou","country":"CN","lat":31.25,"lng":121.4892,"population":687500},{"name":"Sorocaba","country":"BR","lat":-23.5017,"lng":-47.4581,"population":687357},{"name":"Zaragoza","country":"ES","lat":41.6561,"lng":-0.8773,"population":686986},{"name":"Sevilla","country":"ES","lat":37.3828,"lng":-5.9732,"population":686741},{"name":"Baise","country":"CN","lat":23.8901,"lng":106.6268,"population":686078},{"name":"Situbondo","country":"ID","lat":-7.7062,"lng":114.0098,"population":685967},{"name":"Binzhou","country":"CN","lat":37.3667,"lng":118.0167,"population":682717},{"name":"Oklahoma City","country":"US","lat":35.4676,"lng":-97.5164,"population":681054},{"name":"Yuncheng","country":"CN","lat":35.0231,"lng":110.9928,"population":680036},{"name":"Dezhou","country":"CN","lat":37.4466,"lng":116.3671,"population":679535},{"name":"Dushanbe","country":"TJ","lat":38.5358,"lng":68.779,"population":679400},{"name":"Cotonou","country":"BJ","lat":6.3654,"lng":2.4183,"population":679012},{"name":"El Paso","country":"US","lat":31.7587,"lng":-106.4869,"population":678815},{"name":"Gorakhpur","country":"IN","lat":26.7663,"lng":83.3689,"population":674246},{"name":"Guadalupe","country":"MX","lat":25.6768,"lng":-100.2565,"population":673616},{"name":"Wrocław","country":"PL","lat":51.1029,"lng":17.0301,"population":672545},{"name":"Guntur","country":"IN","lat":16.2997,"lng":80.4573,"population":670073},{"name":"Katsina","country":"NG","lat":12.9908,"lng":7.6018,"population":670000},{"name":"Sanmenxia","country":"CN","lat":34.7808,"lng":111.1929,"population":669307},{"name":"E’zhou","country":"CN","lat":30.3961,"lng":114.8865,"population":668727},{"name":"Madīnat an Naşr","country":"EG","lat":30.0667,"lng":31.3,"population":668413},{"name":"Tabuk","country":"SA","lat":28.3998,"lng":36.5715,"population":667000},{"name":"Kitwe","country":"ZM","lat":-12.8024,"lng":28.2132,"population":665961},{"name":"Bulawayo","country":"ZW","lat":-20.15,"lng":28.5833,"population":665952},{"name":"Mudanjiang","country":"CN","lat":44.548,"lng":129.6259,"population":665915},{"name":"Aracaju","country":"BR","lat":-10.9111,"lng":-37.0717,"population":664908},{"name":"Athens","country":"GR","lat":37.9838,"lng":23.7278,"population":664046},{"name":"Zagreb","country":"HR","lat":45.8144,"lng":15.978,"population":663592},{"name":"Leshan","country":"CN","lat":29.5623,"lng":103.7639,"population":662814},{"name":"Santo André","country":"BR","lat":-23.6639,"lng":-46.5383,"population":662373},{"name":"Vancouver","country":"CA","lat":49.2497,"lng":-123.1193,"population":662248},{"name":"Rizhao","country":"CN","lat":35.4141,"lng":119.5291,"population":661943},{"name":"Helsinki","country":"FI","lat":60.1695,"lng":24.9354,"population":658864},{"name":"Cheonan","country":"KR","lat":36.8065,"lng":127.1522,"population":658831},{"name":"Pontianak","country":"ID","lat":-0.0319,"lng":109.325,"population":658685},{"name":"Acapulco de Juárez","country":"MX","lat":16.8494,"lng":-99.9089,"population":658609},{"name":"Banjarmasin","country":"ID","lat":-3.3199,"lng":114.5907,"population":657663},{"name":"Puducherry","country":"IN","lat":11.9338,"lng":79.8298,"population":657209},{"name":"Suining","country":"CN","lat":30.508,"lng":105.5733,"population":656760},{"name":"Brampton","country":"CA","lat":43.6834,"lng":-79.7663,"population":656480},{"name":"Puyang","country":"CN","lat":35.7564,"lng":115.0436,"population":655674},{"name":"Soacha","country":"CO","lat":4.5794,"lng":-74.2168,"population":655025},{"name":"Boston","country":"US","lat":42.3584,"lng":-71.0598,"population":653833},{"name":"Tlalnepantla","country":"MX","lat":19.5401,"lng":-99.1954,"population":653410},{"name":"Portland","country":"US","lat":45.5234,"lng":-122.6762,"population":652503},{"name":"Tlaquepaque","country":"MX","lat":20.6412,"lng":-103.2934,"population":650123},{"name":"Frankfurt am Main","country":"DE","lat":50.1155,"lng":8.6842,"population":650000},{"name":"Macau","country":"MO","lat":22.2006,"lng":113.5461,"population":649335},{"name":"Palermo","country":"IT","lat":38.1166,"lng":13.3636,"population":648260},{"name":"Izhevsk","country":"RU","lat":56.8522,"lng":53.1986,"population":648213},{"name":"Colombo","country":"LK","lat":6.9355,"lng":79.8487,"population":648034},{"name":"Maturín","country":"VE","lat":9.7457,"lng":-63.1832,"population":647459},{"name":"Amravati","country":"IN","lat":20.9333,"lng":77.75,"population":647057},{"name":"Detroit","country":"US","lat":42.3314,"lng":-83.0457,"population":645705},{"name":"Łódź","country":"PL","lat":51.7706,"lng":19.4739,"population":645693},{"name":"Osogbo","country":"NG","lat":7.771,"lng":4.557,"population":645000},{"name":"Honchō","country":"JP","lat":35.7013,"lng":139.9865,"population":644668},{"name":"Bikaner","country":"IN","lat":28.0176,"lng":73.3149,"population":644406},{"name":"Jaboatão dos Guararapes","country":"BR","lat":-8.1128,"lng":-35.0147,"population":644037},{"name":"Las Vegas","country":"US","lat":36.175,"lng":-115.1372,"population":641903},{"name":"New South Memphis","country":"US","lat":35.0868,"lng":-90.0568,"population":641608},{"name":"Hwaseong-si","country":"KR","lat":37.2068,"lng":126.8169,"population":640890},{"name":"Gold Coast","country":"AU","lat":-28.0003,"lng":153.4309,"population":640778},{"name":"Jeonju","country":"KR","lat":35.8219,"lng":127.1489,"population":638421},{"name":"Chongming","country":"CN","lat":31.6185,"lng":121.6962,"population":637921},{"name":"Al Aḩmadī","country":"KW","lat":29.0769,"lng":48.0839,"population":637411},{"name":"Cuenca","country":"EC","lat":-2.8953,"lng":-78.9963,"population":636996},{"name":"Chisinau","country":"MD","lat":47.009,"lng":28.8594,"population":635994},{"name":"Likasi","country":"CD","lat":-10.983,"lng":26.7384,"population":635768},{"name":"Hebi","country":"CN","lat":35.7323,"lng":114.2862,"population":634721},{"name":"Tshikapa","country":"CD","lat":-6.4162,"lng":20.7999,"population":634529},{"name":"Kochi","country":"IN","lat":9.9399,"lng":76.2602,"population":633553},{"name":"Memphis","country":"US","lat":35.1495,"lng":-90.049,"population":633104},{"name":"Jingmen","country":"CN","lat":31.0336,"lng":112.2047,"population":632954},{"name":"Barnaul","country":"RU","lat":53.362,"lng":83.7279,"population":632372},{"name":"Dandong","country":"CN","lat":40.1292,"lng":124.3947,"population":631973},{"name":"Stuttgart","country":"DE","lat":48.7823,"lng":9.177,"population":630305},{"name":"Bhilai","country":"IN","lat":21.2092,"lng":81.4285,"population":627734},{"name":"Ndola","country":"ZM","lat":-12.9587,"lng":28.6366,"population":627503},{"name":"Contagem","country":"BR","lat":-19.9317,"lng":-44.0536,"population":627123},{"name":"Ulyanovsk","country":"RU","lat":54.3282,"lng":48.3866,"population":626540},{"name":"Djibouti","country":"DJ","lat":11.589,"lng":43.145,"population":626512},{"name":"Glasgow","country":"GB","lat":55.8651,"lng":-4.2576,"population":626410},{"name":"Panshan","country":"CN","lat":41.1881,"lng":122.0494,"population":625040},{"name":"Louisville","country":"US","lat":38.2542,"lng":-85.7594,"population":624444},{"name":"Irkutsk","country":"RU","lat":52.2957,"lng":104.2908,"population":623869},{"name":"Ansan-si","country":"KR","lat":37.3236,"lng":126.8219,"population":623256},{"name":"Al Mansurah","country":"EG","lat":31.0364,"lng":31.3807,"population":621953},{"name":"Kermanshah","country":"IR","lat":34.3142,"lng":47.065,"population":621100},{"name":"Düsseldorf","country":"DE","lat":51.2217,"lng":6.7762,"population":620523},{"name":"Feira de Santana","country":"BR","lat":-12.2667,"lng":-38.9667,"population":619609},{"name":"Jiaozhou","country":"CN","lat":36.2839,"lng":120.0033,"population":619266},{"name":"Suizhou","country":"CN","lat":31.7111,"lng":113.3631,"population":618582},{"name":"Villa Nueva","country":"GT","lat":14.5251,"lng":-90.5854,"population":618397},{"name":"Khabarovsk","country":"RU","lat":48.462,"lng":135.0971,"population":618150},{"name":"Cuiabá","country":"BR","lat":-15.5961,"lng":-56.0967,"population":618124},{"name":"Arusha","country":"TZ","lat":-3.3667,"lng":36.6833,"population":617631},{"name":"Las Piñas","country":"PH","lat":14.4506,"lng":120.9828,"population":615549},{"name":"Chizhou","country":"CN","lat":30.6613,"lng":117.4778,"population":615274},{"name":"Coyoacán","country":"MX","lat":19.3467,"lng":-99.1617,"population":614447},{"name":"Ya'an","country":"CN","lat":29.9852,"lng":102.999,"population":612056},{"name":"Cuttack","country":"IN","lat":20.465,"lng":85.8793,"population":610189},{"name":"Borivli","country":"IN","lat":19.235,"lng":72.8598,"population":609617},{"name":"Yaroslavl","country":"RU","lat":57.6299,"lng":39.8737,"population":608722},{"name":"Göteborg","country":"SE","lat":57.7072,"lng":11.9668,"population":608462},{"name":"Kawaguchi","country":"JP","lat":35.8052,"lng":139.7107,"population":607373},{"name":"Bukit Rahman Putra","country":"MY","lat":3.2173,"lng":101.5608,"population":607000},{"name":"Jambi City","country":"ID","lat":-1.6,"lng":103.6167,"population":606200},{"name":"Ha'il","country":"SA","lat":27.5219,"lng":41.6907,"population":605930},{"name":"Bhavnagar","country":"IN","lat":21.7629,"lng":72.1533,"population":605882},{"name":"Benoni","country":"ZA","lat":-26.1885,"lng":28.3208,"population":605344},{"name":"Vladivostok","country":"RU","lat":43.1056,"lng":131.8735,"population":604901},{"name":"Jinzhou","country":"CN","lat":41.1078,"lng":121.1417,"population":604269},{"name":"Tuxtla","country":"MX","lat":16.7536,"lng":-93.1158,"population":604147},{"name":"Kryvyy Rih","country":"UA","lat":47.9057,"lng":33.394,"population":603904},{"name":"Sanming","country":"CN","lat":26.2486,"lng":117.6186,"population":602166},{"name":"Islamabad","country":"PK","lat":33.7215,"lng":73.0433,"population":601600},{"name":"Sāngli","country":"IN","lat":16.8544,"lng":74.5642,"population":601214},{"name":"Jamnagar","country":"IN","lat":22.4729,"lng":70.0667,"population":600943},{"name":"Lubango","country":"AO","lat":-14.9172,"lng":13.4925,"population":600751},{"name":"Pokhara","country":"NP","lat":28.2669,"lng":83.9685,"population":600051},{"name":"Shuangyashan","country":"CN","lat":46.6769,"lng":131.1327,"population":600000},{"name":"Borama","country":"SO","lat":9.9361,"lng":43.1828,"population":597842},{"name":"Pallabi","country":"BD","lat":23.825,"lng":90.37,"population":597574},{"name":"Luancheng","country":"CN","lat":37.8845,"lng":114.6463,"population":597130},{"name":"Makhachkala","country":"RU","lat":42.9778,"lng":47.5003,"population":596356},{"name":"Anyang-si","country":"KR","lat":37.3925,"lng":126.9269,"population":595644},{"name":"Huambo","country":"AO","lat":-12.7761,"lng":15.7392,"population":595304},{"name":"Samarkand","country":"UZ","lat":39.6546,"lng":66.9644,"population":595200},{"name":"Mengzi","country":"CN","lat":23.3678,"lng":103.3821,"population":595100},{"name":"Kagoshima","country":"JP","lat":31.5667,"lng":130.55,"population":595049},{"name":"Mukalla","country":"YE","lat":14.5425,"lng":49.1242,"population":594951},{"name":"Rasht","country":"IR","lat":37.2761,"lng":49.5886,"population":594590},{"name":"Mar del Plata","country":"AR","lat":-38.0004,"lng":-57.5562,"population":593337},{"name":"Essen","country":"DE","lat":51.4566,"lng":7.0123,"population":593085},{"name":"Al Maḩallah al Kubrá","country":"EG","lat":30.9706,"lng":31.1669,"population":592573},{"name":"Málaga","country":"ES","lat":36.7202,"lng":-4.4203,"population":591637},{"name":"Shekhupura","country":"PK","lat":31.7129,"lng":73.9856,"population":591424},{"name":"Yingkou","country":"CN","lat":40.6647,"lng":122.2318,"population":591159},{"name":"Cimahi","country":"ID","lat":-6.8722,"lng":107.5425,"population":590782},{"name":"Zhangzhou","country":"CN","lat":24.5133,"lng":117.6556,"population":589831},{"name":"Reynosa","country":"MX","lat":26.08,"lng":-98.2846,"population":589466},{"name":"Thuận An","country":"VN","lat":10.9239,"lng":106.7143,"population":588616},{"name":"Dortmund","country":"DE","lat":51.5149,"lng":7.466,"population":588462},{"name":"Suginami","country":"JP","lat":36.2013,"lng":140.2841,"population":588354},{"name":"Londrina","country":"BR","lat":-23.3103,"lng":-51.1628,"population":588125},{"name":"Baltimore","country":"US","lat":39.2904,"lng":-76.6122,"population":585708},{"name":"Itabashi","country":"JP","lat":35.7489,"lng":139.715,"population":584483},{"name":"New Kingston","country":"JM","lat":18.0075,"lng":-76.7832,"population":583958},{"name":"Pelentong","country":"MY","lat":1.5243,"lng":103.824,"population":583640},{"name":"Bucaramanga","country":"CO","lat":7.125,"lng":-73.1189,"population":581130},{"name":"Genoa","country":"IT","lat":44.4048,"lng":8.9444,"population":580097},{"name":"Hachiōji","country":"JP","lat":35.6558,"lng":139.3239,"population":579355},{"name":"Malacca","country":"MY","lat":2.196,"lng":102.2405,"population":579000},{"name":"Nha Trang","country":"VN","lat":12.2451,"lng":109.1943,"population":579000},{"name":"Khabarovsk Vtoroy","country":"RU","lat":48.4379,"lng":135.1299,"population":578303},{"name":"Kerman","country":"IR","lat":30.2832,"lng":57.0788,"population":577514},{"name":"Orūmīyeh","country":"IR","lat":37.5527,"lng":45.0761,"population":577307},{"name":"Bahçelievler","country":"TR","lat":41.0023,"lng":28.8598,"population":576799},{"name":"Tanta","country":"EG","lat":30.7885,"lng":31.0019,"population":576648},{"name":"Jammu","country":"IN","lat":32.7353,"lng":74.8617,"population":576198},{"name":"Iskandar Puteri","country":"MY","lat":1.3932,"lng":103.6232,"population":575977},{"name":"Calamba","country":"PH","lat":14.2117,"lng":121.1653,"population":575046},{"name":"Tlalpan","country":"MX","lat":19.2951,"lng":-99.1621,"population":574577},{"name":"Herāt","country":"AF","lat":34.3482,"lng":62.1997,"population":574300},{"name":"Gujrat","country":"PK","lat":32.5742,"lng":74.0754,"population":574240},{"name":"Tomsk","country":"RU","lat":56.5005,"lng":84.9822,"population":574002},{"name":"Juiz de Fora","country":"BR","lat":-21.7642,"lng":-43.3503,"population":573285},{"name":"Umraniye","country":"TR","lat":41.0164,"lng":29.1248,"population":573265},{"name":"Shihezi","country":"CN","lat":44.3023,"lng":86.0369,"population":572772},{"name":"South Boston","country":"US","lat":42.3334,"lng":-71.0495,"population":571281},{"name":"Nakuru","country":"KE","lat":-0.3072,"lng":36.0722,"population":570674},{"name":"Hamilton","country":"CA","lat":43.2501,"lng":-79.8496,"population":569353},{"name":"Irbid","country":"JO","lat":32.5556,"lng":35.85,"population":569068},{"name":"Manchester","country":"GB","lat":53.4809,"lng":-2.2374,"population":568996},{"name":"Kota Bharu","country":"MY","lat":6.1236,"lng":102.2433,"population":568900},{"name":"Surrey","country":"CA","lat":49.1063,"lng":-122.8251,"population":568322},{"name":"Meknes","country":"MA","lat":33.8935,"lng":-5.5473,"population":568295},{"name":"Puente Alto","country":"CL","lat":-33.6117,"lng":-70.5758,"population":568106},{"name":"Nyala","country":"SD","lat":12.0489,"lng":24.8807,"population":565734},{"name":"Orenburg","country":"RU","lat":51.7671,"lng":55.0988,"population":564773},{"name":"Albuquerque","country":"US","lat":35.0845,"lng":-106.6511,"population":564559},{"name":"Bokāro","country":"IN","lat":23.6693,"lng":86.1516,"population":564319},{"name":"Asmara","country":"ER","lat":15.3381,"lng":38.9318,"population":563930},{"name":"Sukkur","country":"PK","lat":27.7032,"lng":68.8589,"population":563851},{"name":"Uberlândia","country":"BR","lat":-18.9186,"lng":-48.2772,"population":563536},{"name":"Milwaukee","country":"US","lat":43.0389,"lng":-87.9065,"population":563531},{"name":"Chợ Lớn","country":"VN","lat":10.75,"lng":106.65,"population":561000},{"name":"Wenchang","country":"CN","lat":19.5516,"lng":110.8028,"population":560894},{"name":"Ile-Ife","country":"NG","lat":7.4824,"lng":4.5603,"population":560000},{"name":"Gombe","country":"NG","lat":10.2897,"lng":11.1673,"population":560000},{"name":"Hamhŭng","country":"KP","lat":39.9183,"lng":127.5364,"population":559056},{"name":"Kemerovo","country":"RU","lat":55.3542,"lng":86.1043,"population":558973},{"name":"Nasiriyah","country":"IQ","lat":31.058,"lng":46.2573,"population":558400},{"name":"Bloemfontein","country":"ZA","lat":-29.1211,"lng":26.214,"population":556637},{"name":"Sheffield","country":"GB","lat":53.383,"lng":-1.4659,"population":556500},{"name":"Dresden","country":"DE","lat":51.0509,"lng":13.7383,"population":556227},{"name":"Santiago de Cuba","country":"CU","lat":20.0229,"lng":-75.8217,"population":555865},{"name":"Siping","country":"CN","lat":43.1614,"lng":124.3778,"population":555609},{"name":"Cuautitlán Izcalli","country":"MX","lat":19.6439,"lng":-99.216,"population":555163},{"name":"Benguela","country":"AO","lat":-12.5767,"lng":13.4027,"population":555124},{"name":"Chuxiong","country":"CN","lat":25.0364,"lng":101.5456,"population":555081},{"name":"Huaihua","country":"CN","lat":27.5634,"lng":110.004,"population":552622},{"name":"Chiclayo","country":"PE","lat":-6.7701,"lng":-79.855,"population":552508},{"name":"Bình Thạnh","country":"VN","lat":10.811,"lng":106.706,"population":552164},{"name":"Zahedan","country":"IR","lat":29.4963,"lng":60.8629,"population":551980},{"name":"Banqiao","country":"TW","lat":25.0143,"lng":121.4672,"population":551221},{"name":"Nanded","country":"IN","lat":19.1602,"lng":77.315,"population":550564},{"name":"Kozhikode","country":"IN","lat":11.248,"lng":75.7804,"population":550440},{"name":"Ulanqab","country":"CN","lat":40.993,"lng":113.133,"population":550231},{"name":"Cabinda","country":"AO","lat":-5.562,"lng":12.1948,"population":550000},{"name":"Ajegunle","country":"NG","lat":6.452,"lng":3.3312,"population":550000},{"name":"Pristina","country":"XK","lat":42.6727,"lng":21.1669,"population":550000},{"name":"Jiamusi","country":"CN","lat":46.7971,"lng":130.3112,"population":549549},{"name":"Korla","country":"CN","lat":41.7606,"lng":86.1523,"population":549324},{"name":"Kolhāpur","country":"IN","lat":16.6956,"lng":74.2317,"population":549236},{"name":"Porto Velho","country":"BR","lat":-8.7619,"lng":-63.9039,"population":548952},{"name":"San Miguel de Tucumán","country":"AR","lat":-26.816,"lng":-65.2105,"population":548866},{"name":"Kuantan","country":"MY","lat":3.8077,"lng":103.326,"population":548014},{"name":"Sevastopol","country":"UA","lat":44.608,"lng":33.5213,"population":547820},{"name":"Nellore","country":"IN","lat":14.4499,"lng":79.987,"population":547621},{"name":"Mirpur Model Thana","country":"BD","lat":23.8093,"lng":90.3609,"population":546503},{"name":"Bremen","country":"DE","lat":53.0758,"lng":8.8072,"population":546501},{"name":"Wanning","country":"CN","lat":18.7993,"lng":110.3841,"population":545992},{"name":"Owerri","country":"NG","lat":5.4836,"lng":7.0332,"population":545000},{"name":"Kota Kuala Muda","country":"MY","lat":5.5882,"lng":100.3709,"population":544984},{"name":"Sungai Petani","country":"MY","lat":5.647,"lng":100.4877,"population":544851},{"name":"Xinzhou","country":"CN","lat":38.4092,"lng":112.7333,"population":544683},{"name":"Kotō","country":"JP","lat":32.7786,"lng":130.7454,"population":543730},{"name":"Kalaburagi","country":"IN","lat":17.3358,"lng":76.8376,"population":543147},{"name":"Tucson","country":"US","lat":32.2217,"lng":-110.9265,"population":542629},{"name":"Selayang Baru Utara","country":"MY","lat":3.2549,"lng":101.6668,"population":542409},{"name":"Vilnius","country":"LT","lat":54.6892,"lng":25.2798,"population":542366},{"name":"Ajmer","country":"IN","lat":26.4521,"lng":74.6387,"population":542321},{"name":"Pingdu","country":"CN","lat":36.7844,"lng":119.9464,"population":542234},{"name":"Fresno","country":"US","lat":36.7477,"lng":-119.7724,"population":542107},{"name":"Mbeya","country":"TZ","lat":-8.9,"lng":33.45,"population":541603},{"name":"Calabar","country":"NG","lat":4.9589,"lng":8.327,"population":540000},{"name":"Oujda","country":"MA","lat":34.6814,"lng":-1.9086,"population":539711},{"name":"Novokuznetsk","country":"RU","lat":53.7575,"lng":87.136,"population":539616},{"name":"Ryazan’","country":"RU","lat":54.627,"lng":39.7041,"population":538962},{"name":"Ji’an","country":"CN","lat":27.1172,"lng":114.9793,"population":538699},{"name":"Sahiwal","country":"PK","lat":30.6659,"lng":73.1019,"population":538344},{"name":"Mersin","country":"TR","lat":36.812,"lng":34.6389,"population":537842},{"name":"Leeds","country":"GB","lat":53.7965,"lng":-1.5478,"population":536280},{"name":"Poznań","country":"PL","lat":52.4069,"lng":16.9299,"population":536151},{"name":"Guli","country":"CN","lat":28.8816,"lng":120.0331,"population":536000},{"name":"Aqsu","country":"CN","lat":41.1842,"lng":80.2792,"population":535657},{"name":"Ebute Ikorodu","country":"NG","lat":6.6009,"lng":3.4882,"population":535619},{"name":"Tanggu","country":"CN","lat":39.0211,"lng":117.6469,"population":535298},{"name":"Pasir Gudang","country":"MY","lat":1.462,"lng":103.9053,"population":534659},{"name":"Astrakhan","country":"RU","lat":46.3497,"lng":48.0408,"population":533925},{"name":"Okara","country":"PK","lat":30.8103,"lng":73.4515,"population":533693},{"name":"Nansana","country":"UG","lat":0.3639,"lng":32.5286,"population":532800},{"name":"Kimhae","country":"KR","lat":35.2342,"lng":128.8811,"population":531966},{"name":"Ar Raqqah","country":"SY","lat":35.9528,"lng":39.0079,"population":531952},{"name":"Québec","country":"CA","lat":46.8123,"lng":-71.2145,"population":531902},{"name":"Cuauhtémoc","country":"MX","lat":19.4451,"lng":-99.1461,"population":531831},{"name":"Shangluo","country":"CN","lat":33.8667,"lng":109.9306,"population":531696},{"name":"Himeji","country":"JP","lat":34.8167,"lng":134.7,"population":530495},{"name":"Ibagué","country":"CO","lat":4.4357,"lng":-75.2029,"population":529635},{"name":"Antwerpen","country":"BE","lat":51.2205,"lng":4.4003,"population":529247},{"name":"Assiut","country":"EG","lat":27.181,"lng":31.1837,"population":528669},{"name":"Hamadān","country":"IR","lat":34.7992,"lng":48.5146,"population":528256},{"name":"Qionghai","country":"CN","lat":19.2425,"lng":110.4642,"population":528238},{"name":"Cangzhou","country":"CN","lat":38.3112,"lng":116.8533,"population":527681},{"name":"Mohammadpur","country":"BD","lat":24.8984,"lng":88.5284,"population":527571},{"name":"Surakarta","country":"ID","lat":-7.5561,"lng":110.8317,"population":526870},{"name":"San Salvador","country":"SV","lat":13.6893,"lng":-89.1872,"population":525990},{"name":"Beihai","country":"CN","lat":21.4835,"lng":109.1155,"population":525329},{"name":"Van","country":"TR","lat":38.4946,"lng":43.3832,"population":525016},{"name":"Sacramento","country":"US","lat":38.5816,"lng":-121.4944,"population":524943},{"name":"Thủ Đức","country":"VN","lat":10.8486,"lng":106.7721,"population":524670},{"name":"Üsküdar","country":"TR","lat":41.0227,"lng":29.0137,"population":524452},{"name":"Penza","country":"RU","lat":53.1957,"lng":45.0108,"population":523553},{"name":"Mazār-e Sharīf","country":"AF","lat":36.709,"lng":67.1109,"population":523300},{"name":"Kandahār","country":"AF","lat":31.6133,"lng":65.7101,"population":523300},{"name":"Hengshui","country":"CN","lat":37.7391,"lng":115.6835,"population":522147},{"name":"Dehradun","country":"IN","lat":30.3244,"lng":78.0339,"population":522081},{"name":"Erode","country":"IN","lat":11.3428,"lng":77.7274,"population":521891},{"name":"Lyon","country":"FR","lat":45.7491,"lng":4.8479,"population":520774},{"name":"Salta","country":"AR","lat":-24.8065,"lng":-65.42,"population":520683},{"name":"Serra","country":"BR","lat":-20.1286,"lng":-40.3078,"population":520653},{"name":"Esenler","country":"TR","lat":41.0435,"lng":28.8762,"population":520235},{"name":"Qui Nhon","country":"VN","lat":13.7765,"lng":109.2237,"population":519208},{"name":"Al Fayyum","country":"EG","lat":29.31,"lng":30.8418,"population":519047},{"name":"Durgapur","country":"IN","lat":23.5158,"lng":87.308,"population":518872},{"name":"Utsunomiya","country":"JP","lat":36.5667,"lng":139.8833,"population":518757},{"name":"Victoria de Durango","country":"MX","lat":24.0203,"lng":-104.6576,"population":518709},{"name":"Lisbon","country":"PT","lat":38.7251,"lng":-9.1498,"population":517802},{"name":"Rahim Yar Khan","country":"PK","lat":28.4199,"lng":70.3034,"population":517000},{"name":"Ulhasnagar","country":"IN","lat":19.2167,"lng":73.15,"population":516584},{"name":"Guangyuan","country":"CN","lat":32.442,"lng":105.823,"population":516424},{"name":"Loni","country":"IN","lat":28.7514,"lng":77.2902,"population":516082},{"name":"Siliguri","country":"IN","lat":26.71,"lng":88.4285,"population":515574},{"name":"Nürnberg","country":"DE","lat":49.4542,"lng":11.0775,"population":515543},{"name":"Ujjain","country":"IN","lat":23.1824,"lng":75.7764,"population":515215},{"name":"Hannover","country":"DE","lat":52.3705,"lng":9.7332,"population":515140},{"name":"Edinburgh","country":"GB","lat":55.9521,"lng":-3.1965,"population":514990},{"name":"Āzādshahr","country":"IR","lat":34.7905,"lng":48.5701,"population":514102},{"name":"Macapá","country":"BR","lat":0.0389,"lng":-51.0664,"population":512902},{"name":"Xianning","country":"CN","lat":29.8435,"lng":114.322,"population":512517},{"name":"Toulouse","country":"FR","lat":43.6043,"lng":1.4437,"population":511684},{"name":"Thembisa","country":"ZA","lat":-25.9964,"lng":28.2268,"population":511655},{"name":"Matsuyama","country":"JP","lat":33.8392,"lng":132.7657,"population":511192},{"name":"Campos dos Goytacazes","country":"BR","lat":-21.7523,"lng":-41.3304,"population":511168},{"name":"Bilimora","country":"IN","lat":20.7696,"lng":72.9613,"population":510879},{"name":"Kasur","country":"PK","lat":31.1187,"lng":74.4502,"population":510875},{"name":"Atlanta","country":"US","lat":33.749,"lng":-84.388,"population":510823},{"name":"Aparecida de Goiânia","country":"BR","lat":-16.8233,"lng":-49.2439,"population":510770},{"name":"Heroica Matamoros","country":"MX","lat":25.8797,"lng":-97.5042,"population":510739},{"name":"Makati City","country":"PH","lat":14.5503,"lng":121.0327,"population":510383},{"name":"Buda","country":"HU","lat":47.5,"lng":19.0333,"population":510108},{"name":"Tonghua","country":"CN","lat":41.7197,"lng":125.9264,"population":510000},{"name":"Mianzhu, Deyang, Sichuan","country":"CN","lat":31.3379,"lng":104.2206,"population":510000},{"name":"Naberezhnyye Chelny","country":"RU","lat":55.7372,"lng":52.4196,"population":509870},{"name":"Lipetsk","country":"RU","lat":52.5876,"lng":39.5515,"population":509735},{"name":"Kikwit","country":"CD","lat":-5.041,"lng":18.8162,"population":509367},{"name":"Florianópolis","country":"BR","lat":-27.5967,"lng":-48.5492,"population":508826},{"name":"Banan","country":"CN","lat":29.3786,"lng":106.54,"population":508703},{"name":"Newcastle","country":"AU","lat":-32.9295,"lng":151.7801,"population":508437},{"name":"Tuen Mun","country":"HK","lat":22.3917,"lng":113.9716,"population":507900},{"name":"Zhangye","country":"CN","lat":38.9342,"lng":100.4517,"population":507433},{"name":"Kirov","country":"RU","lat":58.5981,"lng":49.6578,"population":507155},{"name":"Kashgar","country":"CN","lat":39.4672,"lng":75.9868,"population":506640},{"name":"Mukim Pulai","country":"MY","lat":1.5333,"lng":103.6667,"population":505661},{"name":"Najrān","country":"SA","lat":17.4933,"lng":44.1277,"population":505652},{"name":"Karol Bāgh","country":"IN","lat":28.6514,"lng":77.1907,"population":505241},{"name":"Zhoukou","country":"CN","lat":33.6333,"lng":114.6333,"population":505171},{"name":"Leipzig","country":"DE","lat":51.3396,"lng":12.3713,"population":504971},{"name":"Pingliang","country":"CN","lat":35.5392,"lng":106.6861,"population":504848},{"name":"Huangpu","country":"CN","lat":31.2378,"lng":121.4781,"population":504700},{"name":"Kalininskiy","country":"RU","lat":59.9967,"lng":30.3899,"population":504641},{"name":"Duisburg","country":"DE","lat":51.4325,"lng":6.7652,"population":504358},{"name":"Āsansol","country":"IN","lat":23.6833,"lng":86.9833,"population":504271},{"name":"Arāk","country":"IR","lat":34.0949,"lng":49.6981,"population":503647},{"name":"Maipú","country":"CL","lat":-33.5142,"lng":-70.7651,"population":503635},{"name":"Homyel'","country":"BY","lat":52.4345,"lng":30.9754,"population":501102},{"name":"Aktobe","country":"KZ","lat":50.2797,"lng":57.2072,"population":500757},{"name":"Kota Kinabalu","country":"MY","lat":5.9749,"lng":116.0724,"population":500421},{"name":"Talatona","country":"AO","lat":-8.9178,"lng":13.1856,"population":500000},{"name":"Kampung Larkin Lama","country":"MY","lat":1.5024,"lng":103.744,"population":500000},{"name":"Kota Damansara","country":"MY","lat":3.1545,"lng":101.5802,"population":500000},{"name":"Mangaluru","country":"IN","lat":12.9172,"lng":74.856,"population":499487},{"name":"Zhucheng","country":"CN","lat":35.9947,"lng":119.3975,"population":499285},{"name":"Santa Marta","country":"CO","lat":11.2386,"lng":-74.1943,"population":499192},{"name":"Matsudo","country":"JP","lat":35.7799,"lng":139.9014,"population":498575},{"name":"Hāthazāri","country":"BD","lat":22.5052,"lng":91.8134,"population":498179},{"name":"Lapu-Lapu City","country":"PH","lat":10.3103,"lng":123.9494,"population":497813},{"name":"Karagandy","country":"KZ","lat":49.8019,"lng":73.1021,"population":497777},{"name":"Loudi","country":"CN","lat":27.7344,"lng":111.9944,"population":497171},{"name":"Liverpool","country":"GB","lat":53.4106,"lng":-2.9779,"population":496770},{"name":"Ichikawa","country":"JP","lat":35.7341,"lng":139.9065,"population":496676},{"name":"Bāndarban","country":"BD","lat":22.1953,"lng":92.2195,"population":495272},{"name":"Sha Tin","country":"HK","lat":22.3833,"lng":114.1833,"population":495200},{"name":"Dera Ghazi Khan","country":"PK","lat":30.0459,"lng":70.6403,"population":494464},{"name":"Higashiosaka","country":"JP","lat":34.6667,"lng":135.5833,"population":493940},{"name":"Cheboksary","country":"RU","lat":56.1322,"lng":47.246,"population":492331},{"name":"Pohang","country":"KR","lat":36.0292,"lng":129.3648,"population":492041},{"name":"Shanwei","country":"CN","lat":22.782,"lng":115.3475,"population":491766},{"name":"Montería","country":"CO","lat":8.7508,"lng":-75.8782,"population":490935},{"name":"Ruiru","country":"KE","lat":-1.1466,"lng":36.9609,"population":490120},{"name":"Valledupar","country":"CO","lat":10.4654,"lng":-73.2531,"population":490075},{"name":"Belagavi","country":"IN","lat":15.8521,"lng":74.5045,"population":490045},{"name":"Ajman","country":"AE","lat":25.4018,"lng":55.4788,"population":490035},{"name":"Jianshui","country":"CN","lat":24.2774,"lng":101.224,"population":490000},{"name":"Port Sudan","country":"SD","lat":19.6175,"lng":37.2164,"population":489725},{"name":"Toluca","country":"MX","lat":19.2879,"lng":-99.6532,"population":489333},{"name":"Ciudad López Mateos","country":"MX","lat":19.5579,"lng":-99.2567,"population":489160},{"name":"Al Khuşūş","country":"EG","lat":30.1529,"lng":31.315,"population":488904},{"name":"Jeju City","country":"KR","lat":33.5097,"lng":126.5219,"population":488844},{"name":"Gdańsk","country":"PL","lat":54.3523,"lng":18.6491,"population":487371},{"name":"Miami","country":"US","lat":25.7743,"lng":-80.1937,"population":487014},{"name":"Omaha","country":"US","lat":41.2563,"lng":-95.9404,"population":486051},{"name":"Nishinomiya","country":"JP","lat":34.7156,"lng":135.332,"population":485587},{"name":"Masina","country":"CD","lat":-4.3836,"lng":15.3914,"population":485167},{"name":"Sahāranpur","country":"IN","lat":29.9679,"lng":77.5452,"population":484873},{"name":"Vellore","country":"IN","lat":12.9184,"lng":79.1325,"population":484690},{"name":"Piura","country":"PE","lat":-5.1819,"lng":-80.6572,"population":484475},{"name":"Kurashiki","country":"JP","lat":34.5833,"lng":133.7667,"population":483576},